,location,region,lat,lon,prediction,count,percentage
0,`ajlun-20-jo,asia/amman,32.33385,35.75238,0.0,161,91.48
1,`ajlun-20-jo,asia/amman,32.33385,35.75238,1.0,15,8.52
2,`ajman-02-ae,asia/dubai,25.41111,55.43504,0.0,314,72.52
3,`ajman-02-ae,asia/dubai,25.41111,55.43504,1.0,119,27.48
4,`ar`ar-15-sa,asia/riyadh,30.97531,41.03808,0.0,70,59.32
5,`ar`ar-15-sa,asia/riyadh,30.97531,41.03808,1.0,48,40.68
6,`ibri-09-om,asia/muscat,23.22573,56.51572,0.0,6,50.0
7,`ibri-09-om,asia/muscat,23.22573,56.51572,1.0,6,50.0
8,a coruna-58c-es,europe/madrid,43.37135,-8.396,0.0,175,76.09
9,a coruna-58c-es,europe/madrid,43.37135,-8.396,1.0,55,23.91
10,aachen-07053-de,europe/berlin,50.77664,6.08342,0.0,138,81.18
11,aachen-07053-de,europe/berlin,50.77664,6.08342,1.0,32,18.82
12,aalborg-19851-dk,europe/copenhagen,57.048,9.9187,0.0,25,80.65
13,aalborg-19851-dk,europe/copenhagen,57.048,9.9187,1.0,6,19.35
14,aba-45-ng,africa/lagos,5.10658,7.36667,0.0,5,55.56
15,aba-45-ng,africa/lagos,5.10658,7.36667,1.0,4,44.44
16,abadan-15-ir,asia/tehran,30.3392,48.3043,0.0,6,85.71
17,abadan-15-ir,asia/tehran,30.3392,48.3043,1.0,1,14.29
18,abaetetuba-16-br,america/belem,-1.71806,-48.8825,0.0,6,100.0
19,abakaliki-53-ng,africa/lagos,6.31625,8.11691,0.0,36,76.6
20,abakaliki-53-ng,africa/lagos,6.31625,8.11691,1.0,11,23.4
21,abakan-31-ru,asia/krasnoyarsk,53.71556,91.42917,0.0,2,50.0
22,abakan-31-ru,asia/krasnoyarsk,53.71556,91.42917,1.0,2,50.0
23,abbotsford-02-ca,america/vancouver,49.05798,-122.25257,0.0,479,81.05
24,abbotsford-02-ca,america/vancouver,49.05798,-122.25257,1.0,112,18.95
25,abbottabad-03-pk,asia/karachi,34.14685,73.21449,0.0,15,68.18
26,abbottabad-03-pk,asia/karachi,34.14685,73.21449,1.0,7,31.82
27,abeokuta-16-ng,africa/lagos,7.15,3.35,0.0,59,74.68
28,abeokuta-16-ng,africa/lagos,7.15,3.35,1.0,20,25.32
29,aberdeen-sctt5-gb,europe/london,57.14369,-2.09814,0.0,268,80.97
30,aberdeen-sctt5-gb,europe/london,57.14369,-2.09814,1.0,63,19.03
31,abha-11-sa,asia/riyadh,18.21639,42.50528,0.0,1452,31.1
32,abha-11-sa,asia/riyadh,18.21639,42.50528,1.0,3217,68.9
33,abidjan-82-ci,africa/abidjan,5.30966,-4.01266,0.0,176,68.75
34,abidjan-82-ci,africa/abidjan,5.30966,-4.01266,1.0,80,31.25
35,abilene-tx441-us,america/chicago,32.44874,-99.73314,0.0,33,94.29
36,abilene-tx441-us,america/chicago,32.44874,-99.73314,1.0,2,5.71
37,abohar-23-in,asia/kolkata,30.1431,74.19749,0.0,10,83.33
38,abohar-23-in,asia/kolkata,30.1431,74.19749,1.0,2,16.67
39,abomey calavi-00-africa/porto,novo,6.44852,2.35566,0.0,2,66.67
40,abomey calavi-00-africa/porto,novo,6.44852,2.35566,1.0,1,33.33
41,abu dhabi-01-ae,asia/dubai,24.46667,54.36667,0.0,1385,66.3
42,abu dhabi-01-ae,asia/dubai,24.46667,54.36667,1.0,704,33.7
43,abu road-24-in,asia/kolkata,24.48012,72.78186,0.0,5,83.33
44,abu road-24-in,asia/kolkata,24.48012,72.78186,1.0,1,16.67
45,abuja-11-ng,africa/lagos,9.06853,7.48375,0.0,3003,73.53
46,abuja-11-ng,africa/lagos,9.06853,7.48375,1.0,1081,26.47
47,acambaro-11-mx,america/mexico_city,20.03024,-100.72249,0.0,2,100.0
48,acapulco de juarez-12-mx,america/mexico_city,16.86336,-99.8901,0.0,58,74.36
49,acapulco de juarez-12-mx,america/mexico_city,16.86336,-99.8901,1.0,20,25.64
50,acarigua-18-ve,america/caracas,9.55451,-69.19564,0.0,6,37.5
51,acarigua-18-ve,america/caracas,9.55451,-69.19564,1.0,10,62.5
52,accra-01-gh,africa/accra,5.55602,-0.1969,0.0,9004,72.91
53,accra-01-gh,africa/accra,5.55602,-0.1969,1.0,3346,27.09
54,achiaman-00-gh,africa/accra,5.7,-0.33333,0.0,1868,71.13
55,achiaman-00-gh,africa/accra,5.7,-0.33333,1.0,758,28.87
56,ad dammam-06-sa,asia/riyadh,26.43442,50.10326,0.0,3627,63.51
57,ad dammam-06-sa,asia/riyadh,26.43442,50.10326,1.0,2084,36.49
58,adana-81-tr,europe/istanbul,37.00167,35.32889,0.0,287,69.16
59,adana-81-tr,europe/istanbul,37.00167,35.32889,1.0,128,30.84
60,adapazari-54-tr,europe/istanbul,40.78056,30.40333,0.0,714,73.84
61,adapazari-54-tr,europe/istanbul,40.78056,30.40333,1.0,253,26.16
62,addis ababa-44-et,africa/addis_ababa,9.02497,38.74689,0.0,17,77.27
63,addis ababa-44-et,africa/addis_ababa,9.02497,38.74689,1.0,5,22.73
64,adelaide-05-au,australia/adelaide,-34.92866,138.59863,0.0,1368,57.62
65,adelaide-05-au,australia/adelaide,-34.92866,138.59863,1.0,1006,42.38
66,aden-02-ye,asia/aden,12.77944,45.03667,1.0,2,100.0
67,adiyaman-02-tr,europe/istanbul,37.76441,38.27629,0.0,21,75.0
68,adiyaman-02-tr,europe/istanbul,37.76441,38.27629,1.0,7,25.0
69,afyonkarahisar-03-tr,europe/istanbul,38.75667,30.54333,0.0,60,68.18
70,afyonkarahisar-03-tr,europe/istanbul,38.75667,30.54333,1.0,28,31.82
71,agadir-55001-ma,africa/casablanca,30.42018,-9.59815,0.0,280,79.32
72,agadir-55001-ma,africa/casablanca,30.42018,-9.59815,1.0,73,20.68
73,agartala-26-in,asia/kolkata,23.83605,91.27939,0.0,4,100.0
74,agra-36-in,asia/kolkata,27.18333,78.01667,0.0,52,77.61
75,agra-36-in,asia/kolkata,27.18333,78.01667,1.0,15,22.39
76,agri-04-tr,europe/istanbul,39.71944,43.05139,0.0,10,76.92
77,agri-04-tr,europe/istanbul,39.71944,43.05139,1.0,3,23.08
78,agrigento-15ag-it,europe/rome,37.32084,13.58876,0.0,21,91.3
79,agrigento-15ag-it,europe/rome,37.32084,13.58876,1.0,2,8.7
80,aguascalientes-01-mx,america/mexico_city,21.88333,-102.3,0.0,86,79.63
81,aguascalientes-01-mx,america/mexico_city,21.88333,-102.3,1.0,22,20.37
82,ahmadabad-09-in,asia/kolkata,23.03333,72.61667,0.0,364,68.55
83,ahmadabad-09-in,asia/kolkata,23.03333,72.61667,1.0,167,31.45
84,ahmadpur east-04-pk,asia/karachi,29.14309,71.25976,1.0,1,100.0
85,ahvaz-15-ir,asia/tehran,31.3203,48.6693,0.0,58,44.62
86,ahvaz-15-ir,asia/tehran,31.3203,48.6693,1.0,72,55.38
87,aizawl-31-in,asia/kolkata,23.7367,92.7146,0.0,12,63.16
88,aizawl-31-in,asia/kolkata,23.7367,92.7146,1.0,7,36.84
89,ajdabiya-83-ly,africa/tripoli,30.75545,20.22626,1.0,1,100.0
90,ajmer-24-in,asia/kolkata,26.44976,74.64116,0.0,6,75.0
91,ajmer-24-in,asia/kolkata,26.44976,74.64116,1.0,2,25.0
92,akita shi-02-jp,asia/tokyo,39.71806,140.10333,0.0,77,60.16
93,akita shi-02-jp,asia/tokyo,39.71806,140.10333,1.0,51,39.84
94,ako-13-jp,asia/tokyo,34.75,134.4,0.0,19,70.37
95,ako-13-jp,asia/tokyo,34.75,134.4,1.0,8,29.63
96,akola-16-in,asia/kolkata,20.73333,77.0,0.0,16,31.37
97,akola-16-in,asia/kolkata,20.73333,77.0,1.0,35,68.63
98,akron-oh153-us,america/new_york,41.08144,-81.51901,0.0,135,72.58
99,akron-oh153-us,america/new_york,41.08144,-81.51901,1.0,51,27.42
100,aksaray-75-tr,europe/istanbul,38.37255,34.02537,0.0,36,67.92
101,aksaray-75-tr,europe/istanbul,38.37255,34.02537,1.0,17,32.08
102,aktau-09-kz,asia/aqtau,43.64806,51.17222,0.0,8,28.57
103,aktau-09-kz,asia/aqtau,43.64806,51.17222,1.0,20,71.43
104,akure-48-ng,africa/lagos,7.25256,5.19312,0.0,126,70.0
105,akure-48-ng,africa/lagos,7.25256,5.19312,1.0,54,30.0
106,al `amarah-14-iq,asia/baghdad,31.83588,47.144,0.0,4,57.14
107,al `amarah-14-iq,asia/baghdad,31.83588,47.144,1.0,3,42.86
108,al `arish-27-eg,africa/cairo,31.13159,33.79844,0.0,4,80.0
109,al `arish-27-eg,africa/cairo,31.13159,33.79844,1.0,1,20.0
110,al `ayn-01-ae,asia/dubai,24.19167,55.76056,0.0,13,59.09
111,al `ayn-01-ae,asia/dubai,24.19167,55.76056,1.0,9,40.91
112,al basrah-02-iq,asia/baghdad,30.53302,47.79747,0.0,96,50.79
113,al basrah-02-iq,asia/baghdad,30.53302,47.79747,1.0,93,49.21
114,al fayyum-04-eg,africa/cairo,29.30995,30.8418,0.0,4,44.44
115,al fayyum-04-eg,africa/cairo,29.30995,30.8418,1.0,5,55.56
116,al hillah-06-iq,asia/baghdad,32.46367,44.41963,0.0,10,45.45
117,al hillah-06-iq,asia/baghdad,32.46367,44.41963,1.0,12,54.55
118,al hufuf-06-sa,asia/riyadh,25.36457,49.56532,0.0,478,68.29
119,al hufuf-06-sa,asia/riyadh,25.36457,49.56532,1.0,222,31.71
120,al jizah-08-eg,africa/cairo,30.00808,31.21093,0.0,710,67.04
121,al jizah-08-eg,africa/cairo,30.00808,31.21093,1.0,349,32.96
122,al jubayl-06-sa,asia/riyadh,27.01122,49.65826,0.0,604,75.97
123,al jubayl-06-sa,asia/riyadh,27.01122,49.65826,1.0,191,24.03
124,al mahallah al kubra-05-eg,africa/cairo,30.9745,31.16499,0.0,518,67.8
125,al mahallah al kubra-05-eg,africa/cairo,30.9745,31.16499,1.0,246,32.2
126,al mansurah-01-eg,africa/cairo,31.03637,31.38069,0.0,1090,71.34
127,al mansurah-01-eg,africa/cairo,31.03637,31.38069,1.0,438,28.66
128,al minya-10-eg,africa/cairo,28.10988,30.7503,0.0,5,62.5
129,al minya-10-eg,africa/cairo,28.10988,30.7503,1.0,3,37.5
130,al mukalla-04-ye,asia/aden,14.54248,49.12424,0.0,11,64.71
131,al mukalla-04-ye,asia/aden,14.54248,49.12424,1.0,6,35.29
132,al qatif-00-sa,asia/riyadh,26.5208,50.02452,0.0,277,63.82
133,al qatif-00-sa,asia/riyadh,26.5208,50.02452,1.0,157,36.18
134,al qurayyat-20-sa,asia/riyadh,31.33176,37.34282,0.0,398,59.58
135,al qurayyat-20-sa,asia/riyadh,31.33176,37.34282,1.0,270,40.42
136,al sohar-02-om,asia/muscat,24.3643,56.74681,0.0,352,67.05
137,al sohar-02-om,asia/muscat,24.3643,56.74681,1.0,173,32.95
138,alagoinhas-05-br,america/bahia,-12.13556,-38.41917,0.0,14,56.0
139,alagoinhas-05-br,america/bahia,-12.13556,-38.41917,1.0,11,44.0
140,alanya-07-tr,europe/istanbul,36.54375,31.99982,0.0,67,74.44
141,alanya-07-tr,europe/istanbul,36.54375,31.99982,1.0,23,25.56
142,alba iulia-01-ro,europe/bucharest,46.06667,23.58333,0.0,2,100.0
143,albacete-54ab-es,europe/madrid,38.98333,-1.85,0.0,258,77.25
144,albacete-54ab-es,europe/madrid,38.98333,-1.85,1.0,76,22.75
145,albany-ny001-us,america/new_york,42.65258,-73.75623,0.0,212,78.52
146,albany-ny001-us,america/new_york,42.65258,-73.75623,1.0,58,21.48
147,albuquerque-nm001-us,america/denver,35.08449,-106.65114,0.0,197,72.43
148,albuquerque-nm001-us,america/denver,35.08449,-106.65114,1.0,75,27.57
149,albury-02-au,australia/sydney,-36.07494,146.92394,0.0,62,73.81
150,albury-02-au,australia/sydney,-36.07494,146.92394,1.0,22,26.19
151,aleksandrov-83-ru,europe/moscow,56.39516,38.71216,0.0,1,100.0
152,aleppo-09-sy,asia/damascus,36.20124,37.16117,0.0,8,44.44
153,aleppo-09-sy,asia/damascus,36.20124,37.16117,1.0,10,55.56
154,alessandria-12al-it,europe/rome,44.91245,8.61894,0.0,52,72.22
155,alessandria-12al-it,europe/rome,44.91245,8.61894,1.0,20,27.78
156,alexandria-06-eg,africa/cairo,31.21564,29.95527,0.0,991,70.58
157,alexandria-06-eg,africa/cairo,31.21564,29.95527,1.0,413,29.42
158,alexandria-va510-us,america/new_york,38.80484,-77.04692,0.0,294,66.67
159,alexandria-va510-us,america/new_york,38.80484,-77.04692,1.0,147,33.33
160,alfenas-15-br,america/sao_paulo,-21.42917,-45.94722,0.0,15,93.75
161,alfenas-15-br,america/sao_paulo,-21.42917,-45.94722,1.0,1,6.25
162,algeciras-51ca-es,europe/madrid,36.13326,-5.45051,0.0,176,73.64
163,algeciras-51ca-es,europe/madrid,36.13326,-5.45051,1.0,63,26.36
164,algiers-01-dz,africa/algiers,36.7525,3.04197,0.0,757,55.46
165,algiers-01-dz,africa/algiers,36.7525,3.04197,1.0,608,44.54
166,alicante-60a-es,europe/madrid,38.34517,-0.48149,0.0,723,49.66
167,alicante-60a-es,europe/madrid,38.34517,-0.48149,1.0,733,50.34
168,aligarh-36-in,asia/kolkata,27.88334,78.07475,0.0,8,88.89
169,aligarh-36-in,asia/kolkata,27.88334,78.07475,1.0,1,11.11
170,allahabad-36-in,asia/kolkata,25.44894,81.83328,0.0,248,74.92
171,allahabad-36-in,asia/kolkata,25.44894,81.83328,1.0,83,25.08
172,allentown-pa077-us,america/new_york,40.60843,-75.49018,0.0,248,82.12
173,allentown-pa077-us,america/new_york,40.60843,-75.49018,1.0,54,17.88
174,alleppey-13-in,asia/kolkata,9.49004,76.3264,0.0,58,86.57
175,alleppey-13-in,asia/kolkata,9.49004,76.3264,1.0,9,13.43
176,almaty-02-kz,asia/almaty,43.25654,76.92848,0.0,24,75.0
177,almaty-02-kz,asia/almaty,43.25654,76.92848,1.0,8,25.0
178,almere stad-16-nl,europe/amsterdam,52.37025,5.21413,0.0,148,79.57
179,almere stad-16-nl,europe/amsterdam,52.37025,5.21413,1.0,38,20.43
180,almeria-51al-es,europe/madrid,36.83814,-2.45974,0.0,183,74.09
181,almeria-51al-es,europe/madrid,36.83814,-2.45974,1.0,64,25.91
182,alor setar-02-my,asia/kuala_lumpur,6.12104,100.36014,0.0,62,55.36
183,alor setar-02-my,asia/kuala_lumpur,6.12104,100.36014,1.0,50,44.64
184,alto barinas-05-ve,america/caracas,8.5931,-70.2261,0.0,26,50.98
185,alto barinas-05-ve,america/caracas,8.5931,-70.2261,1.0,25,49.02
186,alwar-24-in,asia/kolkata,27.56246,76.625,0.0,3,37.5
187,alwar-24-in,asia/kolkata,27.56246,76.625,1.0,5,62.5
188,amalner-16-in,asia/kolkata,21.05,75.06667,0.0,14,66.67
189,amalner-16-in,asia/kolkata,21.05,75.06667,1.0,7,33.33
190,amarillo-tx375-us,america/chicago,35.222,-101.8313,0.0,48,88.89
191,amarillo-tx375-us,america/chicago,35.222,-101.8313,1.0,6,11.11
192,amasya-05-tr,europe/istanbul,40.65333,35.83306,0.0,31,65.96
193,amasya-05-tr,europe/istanbul,40.65333,35.83306,1.0,16,34.04
194,ambala-10-in,asia/kolkata,30.36284,76.79516,0.0,22,70.97
195,ambala-10-in,asia/kolkata,30.36284,76.79516,1.0,9,29.03
196,ambato-19-ec,america/guayaquil,-1.24908,-78.61675,0.0,239,49.28
197,ambato-19-ec,america/guayaquil,-1.24908,-78.61675,1.0,246,50.72
198,amberg-02-de,europe/berlin,49.44287,11.86267,0.0,39,76.47
199,amberg-02-de,europe/berlin,49.44287,11.86267,1.0,12,23.53
200,ambon-28-id,asia/jayapura,-3.69543,128.1814,0.0,36,63.16
201,ambon-28-id,asia/jayapura,-3.69543,128.1814,1.0,21,36.84
202,amiens-b680-fr,europe/paris,49.9,2.3,0.0,551,52.68
203,amiens-b680-fr,europe/paris,49.9,2.3,1.0,495,47.32
204,amman-16-jo,asia/amman,31.95522,35.94503,0.0,621,75.82
205,amman-16-jo,asia/amman,31.95522,35.94503,1.0,198,24.18
206,amol-35-ir,asia/tehran,36.46961,52.35072,0.0,18,78.26
207,amol-35-ir,asia/tehran,36.46961,52.35072,1.0,5,21.74
208,amravati-16-in,asia/kolkata,20.93333,77.75,0.0,3,75.0
209,amravati-16-in,asia/kolkata,20.93333,77.75,1.0,1,25.0
210,amreli-09-in,asia/kolkata,21.61667,71.23333,0.0,2,100.0
211,amritsar-23-in,asia/kolkata,31.63661,74.87476,0.0,35,47.3
212,amritsar-23-in,asia/kolkata,31.63661,74.87476,1.0,39,52.7
213,amsterdam-07-nl,europe/amsterdam,52.37403,4.88969,0.0,5327,50.5
214,amsterdam-07-nl,europe/amsterdam,52.37403,4.88969,1.0,5222,49.5
215,an najaf al ashraf-17-iq,asia/baghdad,31.9892,44.3291,0.0,4,23.53
216,an najaf al ashraf-17-iq,asia/baghdad,31.9892,44.3291,1.0,13,76.47
217,an nasiriyah-09-iq,asia/baghdad,31.05799,46.25726,0.0,1,100.0
218,anaco-02-ve,america/caracas,9.43889,-64.47278,0.0,7,46.67
219,anaco-02-ve,america/caracas,9.43889,-64.47278,1.0,8,53.33
220,anaheim-ca059-us,america/los_angeles,33.83529,-117.9145,0.0,2781,67.08
221,anaheim-ca059-us,america/los_angeles,33.83529,-117.9145,1.0,1365,32.92
222,anapolis-29-br,america/sao_paulo,-16.32667,-48.95278,0.0,52,91.23
223,anapolis-29-br,america/sao_paulo,-16.32667,-48.95278,1.0,5,8.77
224,anchorage-ak020-us,america/anchorage,61.21806,-149.90028,0.0,127,61.06
225,anchorage-ak020-us,america/anchorage,61.21806,-149.90028,1.0,81,38.94
226,ancona-10an-it,europe/rome,43.59816,13.51008,0.0,37,67.27
227,ancona-10an-it,europe/rome,43.59816,13.51008,1.0,18,32.73
228,andria-13bt-it,europe/rome,41.23063,16.29087,0.0,23,88.46
229,andria-13bt-it,europe/rome,41.23063,16.29087,1.0,3,11.54
230,angeles city-0350-ph,asia/manila,15.15,120.58333,0.0,63,32.81
231,angeles city-0350-ph,asia/manila,15.15,120.58333,1.0,129,67.19
232,angers-b549-fr,europe/paris,47.46667,-0.55,0.0,521,62.92
233,angers-b549-fr,europe/paris,47.46667,-0.55,1.0,307,37.08
234,angra dos reis-21-br,america/sao_paulo,-23.00667,-44.31806,0.0,30,73.17
235,angra dos reis-21-br,america/sao_paulo,-23.00667,-44.31806,1.0,11,26.83
236,ankara-68-tr,europe/istanbul,39.91987,32.85427,0.0,2821,66.3
237,ankara-68-tr,europe/istanbul,39.91987,32.85427,1.0,1434,33.7
238,ann arbor-mi161-us,america/detroit,42.27756,-83.74088,0.0,225,80.94
239,ann arbor-mi161-us,america/detroit,42.27756,-83.74088,1.0,53,19.06
240,annaba-37-dz,africa/algiers,36.9,7.76667,0.0,57,70.37
241,annaba-37-dz,africa/algiers,36.9,7.76667,1.0,24,29.63
242,annecy-b974-fr,europe/paris,45.9,6.11667,0.0,172,71.67
243,annecy-b974-fr,europe/paris,45.9,6.11667,1.0,68,28.33
244,antalya-07-tr,europe/istanbul,36.90812,30.69556,0.0,761,64.66
245,antalya-07-tr,europe/istanbul,36.90812,30.69556,1.0,416,35.34
246,antananarivo-7670856-mg,indian/antananarivo,-18.91368,47.53613,0.0,13,52.0
247,antananarivo-7670856-mg,indian/antananarivo,-18.91368,47.53613,1.0,12,48.0
248,antigua guatemala-16-gt,america/guatemala,14.56111,-90.73444,0.0,28,82.35
249,antigua guatemala-16-gt,america/guatemala,14.56111,-90.73444,1.0,6,17.65
250,antofagasta-0321-cl,america/santiago,-23.65,-70.4,0.0,12,70.59
251,antofagasta-0321-cl,america/santiago,-23.65,-70.4,1.0,5,29.41
252,antwerpen-vlgvan-be,europe/brussels,51.21989,4.40346,0.0,676,64.32
253,antwerpen-vlgvan-be,europe/brussels,51.21989,4.40346,1.0,375,35.68
254,aomori shi-03-jp,asia/tokyo,40.82444,140.74,0.0,25,65.79
255,aomori shi-03-jp,asia/tokyo,40.82444,140.74,1.0,13,34.21
256,apartado-02-co,america/bogota,7.88299,-76.62587,0.0,1,100.0
257,apatity-49-ru,europe/moscow,67.56414,33.4031,0.0,4,33.33
258,apatity-49-ru,europe/moscow,67.56414,33.4031,1.0,8,66.67
259,aqtobe-04-kz,asia/aqtobe,50.27969,57.20718,0.0,2,100.0
260,ar rayyan-06-qa,asia/qatar,25.29194,51.42444,0.0,3912,62.59
261,ar rayyan-06-qa,asia/qatar,25.29194,51.42444,1.0,2338,37.41
262,ar rifa'-18-bh,asia/bahrain,26.13,50.555,0.0,43,65.15
263,ar rifa'-18-bh,asia/bahrain,26.13,50.555,1.0,23,34.85
264,ar riqqah-04-kw,asia/kuwait,29.14583,48.09472,0.0,2001,66.13
265,ar riqqah-04-kw,asia/kuwait,29.14583,48.09472,1.0,1025,33.87
266,aracaju-28-br,america/maceio,-10.91111,-37.07167,0.0,354,88.06
267,aracaju-28-br,america/maceio,-10.91111,-37.07167,1.0,48,11.94
268,aracati-06-br,america/fortaleza,-4.56167,-37.76972,0.0,36,92.31
269,aracati-06-br,america/fortaleza,-4.56167,-37.76972,1.0,3,7.69
270,aracatuba-27-br,america/sao_paulo,-21.20889,-50.43278,0.0,41,85.42
271,aracatuba-27-br,america/sao_paulo,-21.20889,-50.43278,1.0,7,14.58
272,arad-02-ro,europe/bucharest,46.18333,21.31667,0.0,1,50.0
273,arad-02-ro,europe/bucharest,46.18333,21.31667,1.0,1,50.0
274,araguaina-31-br,america/araguaina,-7.19111,-48.20722,0.0,5,83.33
275,araguaina-31-br,america/araguaina,-7.19111,-48.20722,1.0,1,16.67
276,aral-13-cn,asia/kashgar,40.51556,81.26361,1.0,1,100.0
277,arapiraca-02-br,america/maceio,-9.7525,-36.66111,0.0,51,83.61
278,arapiraca-02-br,america/maceio,-9.7525,-36.66111,1.0,10,16.39
279,araruama-21-br,america/sao_paulo,-22.87278,-42.34306,0.0,210,78.65
280,araruama-21-br,america/sao_paulo,-22.87278,-42.34306,1.0,57,21.35
281,araxa-15-br,america/sao_paulo,-19.59333,-46.94056,0.0,2,66.67
282,araxa-15-br,america/sao_paulo,-19.59333,-46.94056,1.0,1,33.33
283,arcoverde-30-br,america/recife,-8.41889,-37.05389,0.0,21,87.5
284,arcoverde-30-br,america/recife,-8.41889,-37.05389,1.0,3,12.5
285,ardabil-32-ir,asia/tehran,38.2498,48.2933,0.0,1,50.0
286,ardabil-32-ir,asia/tehran,38.2498,48.2933,1.0,1,50.0
287,ardakan-40-ir,asia/tehran,32.31001,54.01747,0.0,214,38.15
288,ardakan-40-ir,asia/tehran,32.31001,54.01747,1.0,347,61.85
289,arequipa-04-pe,america/lima,-16.39889,-71.535,0.0,30,68.18
290,arequipa-04-pe,america/lima,-16.39889,-71.535,1.0,14,31.82
291,arezzo-16ar-it,europe/rome,43.46139,11.87691,0.0,95,76.0
292,arezzo-16ar-it,europe/rome,43.46139,11.87691,1.0,30,24.0
293,argenteuil-a895-fr,europe/paris,48.95,2.25,0.0,1711,62.54
294,argenteuil-a895-fr,europe/paris,48.95,2.25,1.0,1025,37.46
295,arhus-18751-dk,europe/copenhagen,56.15674,10.21076,0.0,1400,62.39
296,arhus-18751-dk,europe/copenhagen,56.15674,10.21076,1.0,844,37.61
297,arica-16151-cl,america/santiago,-18.475,-70.30417,0.0,7,50.0
298,arica-16151-cl,america/santiago,-18.475,-70.30417,1.0,7,50.0
299,arkhangel'sk-06-ru,europe/moscow,64.5401,40.5433,0.0,2,66.67
300,arkhangel'sk-06-ru,europe/moscow,64.5401,40.5433,1.0,1,33.33
301,arlington-va013-us,america/new_york,38.88101,-77.10428,0.0,2961,71.69
302,arlington-va013-us,america/new_york,38.88101,-77.10428,1.0,1169,28.31
303,armenia-23-co,america/bogota,4.53389,-75.68111,0.0,46,63.89
304,armenia-23-co,america/bogota,4.53389,-75.68111,1.0,26,36.11
305,arona-53tf-es,atlantic/canary,28.09962,-16.68102,0.0,14,70.0
306,arona-53tf-es,atlantic/canary,28.09962,-16.68102,1.0,6,30.0
307,arras-b462-fr,europe/paris,50.29301,2.78186,0.0,374,76.17
308,arras-b462-fr,europe/paris,50.29301,2.78186,1.0,117,23.83
309,arrecife-53gc-es,atlantic/canary,28.96302,-13.54769,0.0,44,67.69
310,arrecife-53gc-es,atlantic/canary,28.96302,-13.54769,1.0,21,32.31
311,arusha-26-tz,africa/dar_es_salaam,-3.36667,36.68333,0.0,25,67.57
312,arusha-26-tz,africa/dar_es_salaam,-3.36667,36.68333,1.0,12,32.43
313,as salimiyah-00-kw,asia/kuwait,29.33389,48.07611,0.0,5269,63.02
314,as salimiyah-00-kw,asia/kuwait,29.33389,48.07611,1.0,3092,36.98
315,as samawah-03-iq,asia/baghdad,31.33198,45.2944,0.0,24,46.15
316,as samawah-03-iq,asia/baghdad,31.33198,45.2944,1.0,28,53.85
317,as sulaymaniyah-05-iq,asia/baghdad,35.56496,45.4329,0.0,6,85.71
318,as sulaymaniyah-05-iq,asia/baghdad,35.56496,45.4329,1.0,1,14.29
319,as suwayq-02-om,asia/muscat,23.84944,57.43861,0.0,389,75.53
320,as suwayq-02-om,asia/muscat,23.84944,57.43861,1.0,126,24.47
321,asahikawa-12-jp,asia/tokyo,43.76778,142.37028,0.0,117,64.64
322,asahikawa-12-jp,asia/tokyo,43.76778,142.37028,1.0,64,35.36
323,ashburn-va107-us,america/new_york,39.04372,-77.48749,0.0,220,75.34
324,ashburn-va107-us,america/new_york,39.04372,-77.48749,1.0,72,24.66
325,ashdod-01-il,asia/jerusalem,31.81667,34.65,0.0,9,26.47
326,ashdod-01-il,asia/jerusalem,31.81667,34.65,1.0,25,73.53
327,assen-01-nl,europe/amsterdam,52.99667,6.5625,0.0,301,72.36
328,assen-01-nl,europe/amsterdam,52.99667,6.5625,1.0,115,27.64
329,assis-27-br,america/sao_paulo,-22.66167,-50.41222,0.0,5,100.0
330,astana-05-kz,asia/almaty,51.1801,71.44598,0.0,12,80.0
331,astana-05-kz,asia/almaty,51.1801,71.44598,1.0,3,20.0
332,asuncion-22-py,america/asuncion,-25.30066,-57.63591,0.0,221,70.61
333,asuncion-22-py,america/asuncion,-25.30066,-57.63591,1.0,92,29.39
334,aswan-16-eg,africa/cairo,24.09343,32.90704,0.0,29,67.44
335,aswan-16-eg,africa/cairo,24.09343,32.90704,1.0,14,32.56
336,asyut-17-eg,africa/cairo,27.18096,31.18368,0.0,53,45.69
337,asyut-17-eg,africa/cairo,27.18096,31.18368,1.0,63,54.31
338,athens-esye31-gr,europe/athens,37.97945,23.71622,0.0,809,62.18
339,athens-esye31-gr,europe/athens,37.97945,23.71622,1.0,492,37.82
340,athens-ga059-us,america/new_york,33.96095,-83.37794,0.0,59,69.41
341,athens-ga059-us,america/new_york,33.96095,-83.37794,1.0,26,30.59
342,atlanta-ga121-us,america/new_york,33.749,-84.38798,0.0,4123,54.44
343,atlanta-ga121-us,america/new_york,33.749,-84.38798,1.0,3451,45.56
344,auckland-e7076-nz,pacific/auckland,-36.86667,174.76667,0.0,133,57.33
345,auckland-e7076-nz,pacific/auckland,-36.86667,174.76667,1.0,99,42.67
346,augsburg-02097-de,europe/berlin,48.36667,10.88333,0.0,41,77.36
347,augsburg-02097-de,europe/berlin,48.36667,10.88333,1.0,12,22.64
348,aurangabad-16-in,asia/kolkata,19.88333,75.33333,0.0,35,68.63
349,aurangabad-16-in,asia/kolkata,19.88333,75.33333,1.0,16,31.37
350,aurora-co001-us,america/denver,39.72943,-104.83192,0.0,8,61.54
351,aurora-co001-us,america/denver,39.72943,-104.83192,1.0,5,38.46
352,aurora-il089-us,america/chicago,41.76058,-88.32007,0.0,48,78.69
353,aurora-il089-us,america/chicago,41.76058,-88.32007,1.0,13,21.31
354,austin-tx453-us,america/chicago,30.26715,-97.74306,0.0,1136,65.14
355,austin-tx453-us,america/chicago,30.26715,-97.74306,1.0,608,34.86
356,avare-27-br,america/sao_paulo,-23.09861,-48.92583,0.0,11,64.71
357,avare-27-br,america/sao_paulo,-23.09861,-48.92583,1.0,6,35.29
358,aveiro-02-pt,europe/lisbon,40.64427,-8.64554,0.0,581,46.33
359,aveiro-02-pt,europe/lisbon,40.64427,-8.64554,1.0,673,53.67
360,avignon-b884-fr,europe/paris,43.94834,4.80892,0.0,202,63.32
361,avignon-b884-fr,europe/paris,43.94834,4.80892,1.0,117,36.68
362,ayacucho-05-pe,america/lima,-13.15833,-74.22389,0.0,3,75.0
363,ayacucho-05-pe,america/lima,-13.15833,-74.22389,1.0,1,25.0
364,aydin-09-tr,europe/istanbul,37.84501,27.83963,0.0,92,89.32
365,aydin-09-tr,europe/istanbul,37.84501,27.83963,1.0,11,10.68
366,az zaqaziq-14-eg,africa/cairo,30.58768,31.502,0.0,635,69.1
367,az zaqaziq-14-eg,africa/cairo,30.58768,31.502,1.0,284,30.9
368,az zarqa'-17-jo,asia/amman,32.07275,36.08796,0.0,27,72.97
369,az zarqa'-17-jo,asia/amman,32.07275,36.08796,1.0,10,27.03
370,azare-46-ng,africa/lagos,11.6765,10.1948,0.0,4,100.0
371,babahoyo-13-ec,america/guayaquil,-1.81667,-79.51667,0.0,10,76.92
372,babahoyo-13-ec,america/guayaquil,-1.81667,-79.51667,1.0,3,23.08
373,babati-27-tz,africa/dar_es_salaam,-4.21667,35.75,0.0,1,5.0
374,babati-27-tz,africa/dar_es_salaam,-4.21667,35.75,1.0,19,95.0
375,babijn-00-aw,america/aruba,12.53333,-69.98333,0.0,22,73.33
376,babijn-00-aw,america/aruba,12.53333,-69.98333,1.0,8,26.67
377,babruysk-06-by,europe/minsk,53.1384,29.2214,0.0,3,100.0
378,bacabal-13-br,america/fortaleza,-4.29167,-44.79167,0.0,3,75.0
379,bacabal-13-br,america/fortaleza,-4.29167,-44.79167,1.0,1,25.0
380,bacau-04-ro,europe/bucharest,46.56667,26.9,0.0,4,100.0
381,bacolod city-06h3-ph,asia/manila,10.66667,122.95,0.0,118,40.83
382,bacolod city-06h3-ph,asia/manila,10.66667,122.95,1.0,171,59.17
383,badajoz-57ba-es,europe/madrid,38.87789,-6.97061,0.0,136,77.71
384,badajoz-57ba-es,europe/madrid,38.87789,-6.97061,1.0,39,22.29
385,bafoussam-08-cm,africa/douala,5.47366,10.41786,0.0,38,77.55
386,bafoussam-08-cm,africa/douala,5.47366,10.41786,1.0,11,22.45
387,bagaha-34-in,asia/kolkata,27.09918,84.09003,0.0,2,50.0
388,bagaha-34-in,asia/kolkata,27.09918,84.09003,1.0,2,50.0
389,baghdad-07-iq,asia/baghdad,33.34058,44.40088,0.0,263,66.58
390,baghdad-07-iq,asia/baghdad,33.34058,44.40088,1.0,132,33.42
391,bago-16-mm,asia/rangoon,17.33667,96.47972,0.0,4,100.0
392,baguio-15a4-ph,asia/manila,16.41639,120.59306,0.0,28,43.08
393,baguio-15a4-ph,asia/manila,16.41639,120.59306,1.0,37,56.92
394,baharampur-28-in,asia/kolkata,24.10473,88.25155,0.0,1,33.33
395,baharampur-28-in,asia/kolkata,24.10473,88.25155,1.0,2,66.67
396,bahawalnagar-04-pk,asia/karachi,29.99866,73.2536,0.0,13,68.42
397,bahawalnagar-04-pk,asia/karachi,29.99866,73.2536,1.0,6,31.58
398,bahawalpur-04-pk,asia/karachi,29.4,71.68333,0.0,20,76.92
399,bahawalpur-04-pk,asia/karachi,29.4,71.68333,1.0,6,23.08
400,bahia blanca-01-ar,america/argentina/buenos_aires,-38.7196,-62.27243,0.0,136,66.67
401,bahia blanca-01-ar,america/argentina/buenos_aires,-38.7196,-62.27243,1.0,68,33.33
402,baia mare-25-ro,europe/bucharest,47.65729,23.56808,0.0,5,71.43
403,baia mare-25-ro,europe/bucharest,47.65729,23.56808,1.0,2,28.57
404,baia mare-32-ro,europe/bucharest,47.65331,23.57949,0.0,6,60.0
405,baia mare-32-ro,europe/bucharest,47.65331,23.57949,1.0,4,40.0
406,bakersfield-ca029-us,america/los_angeles,35.37329,-119.01871,0.0,40,70.18
407,bakersfield-ca029-us,america/los_angeles,35.37329,-119.01871,1.0,17,29.82
408,baku-09-az,asia/baku,40.37767,49.89201,0.0,211,76.45
409,baku-09-az,asia/baku,40.37767,49.89201,1.0,65,23.55
410,balaghat-35-in,asia/kolkata,21.8,80.18333,0.0,1,100.0
411,balasore-21-in,asia/kolkata,21.49417,86.93167,0.0,2,66.67
412,balasore-21-in,asia/kolkata,21.49417,86.93167,1.0,1,33.33
413,balikesir-10-tr,europe/istanbul,39.64917,27.88611,0.0,37,39.78
414,balikesir-10-tr,europe/istanbul,39.64917,27.88611,1.0,56,60.22
415,balotra-24-in,asia/kolkata,25.83242,72.24,0.0,6,100.0
416,balrampur-36-in,asia/kolkata,27.42766,82.1871,0.0,3,50.0
417,balrampur-36-in,asia/kolkata,27.42766,82.1871,1.0,3,50.0
418,baltimore-md510-us,america/new_york,39.29038,-76.61219,0.0,840,67.85
419,baltimore-md510-us,america/new_york,39.29038,-76.61219,1.0,398,32.15
420,bamako-01-ml,africa/bamako,12.65,-8.0,0.0,10,41.67
421,bamako-01-ml,africa/bamako,12.65,-8.0,1.0,14,58.33
422,bamberg-02-de,europe/berlin,49.89873,10.90067,0.0,220,48.35
423,bamberg-02-de,europe/berlin,49.89873,10.90067,1.0,235,51.65
424,bamenda-07-cm,africa/douala,5.95266,10.15824,0.0,6,60.0
425,bamenda-07-cm,africa/douala,5.95266,10.15824,1.0,4,40.0
426,ban rangsit-39-th,asia/bangkok,14.02775,100.75603,0.0,52,42.28
427,ban rangsit-39-th,asia/bangkok,14.02775,100.75603,1.0,71,57.72
428,banda aceh-01-id,asia/jakarta,5.5577,95.3222,0.0,54,60.67
429,banda aceh-01-id,asia/jakarta,5.5577,95.3222,1.0,35,39.33
430,bandar 'abbas-11-ir,asia/tehran,27.1865,56.2808,0.0,234,39.93
431,bandar 'abbas-11-ir,asia/tehran,27.1865,56.2808,1.0,352,60.07
432,bandar bushehr-22-ir,asia/tehran,28.9684,50.8385,0.0,1,33.33
433,bandar bushehr-22-ir,asia/tehran,28.9684,50.8385,1.0,2,66.67
434,bandarlampung-15-id,asia/jakarta,-5.42544,105.25803,0.0,201,41.88
435,bandarlampung-15-id,asia/jakarta,-5.42544,105.25803,1.0,279,58.12
436,bandirma-10-tr,europe/istanbul,40.35222,27.97667,0.0,60,85.71
437,bandirma-10-tr,europe/istanbul,40.35222,27.97667,1.0,10,14.29
438,bandundu-01-cd,africa/kinshasa,-3.31667,17.36667,1.0,1,100.0
439,bandung-30-id,asia/jakarta,-6.90389,107.61861,0.0,2710,49.06
440,bandung-30-id,asia/jakarta,-6.90389,107.61861,1.0,2814,50.94
441,bangalore-19-in,asia/kolkata,12.97194,77.59369,0.0,1374,61.15
442,bangalore-19-in,asia/kolkata,12.97194,77.59369,1.0,873,38.85
443,bangkok-40-th,asia/bangkok,13.75398,100.50144,0.0,4268,36.04
444,bangkok-40-th,asia/bangkok,13.75398,100.50144,1.0,7575,63.96
445,banha-12-eg,africa/cairo,30.45906,31.17858,0.0,1552,78.62
446,banha-12-eg,africa/cairo,30.45906,31.17858,1.0,422,21.38
447,bani suwayf-18-eg,africa/cairo,29.07441,31.09785,0.0,5,11.9
448,bani suwayf-18-eg,africa/cairo,29.07441,31.09785,1.0,37,88.1
449,banja luka-02-ba,europe/sarajevo,44.77583,17.18556,0.0,16,80.0
450,banja luka-02-ba,europe/sarajevo,44.77583,17.18556,1.0,4,20.0
451,banjarmasin-12-id,asia/makassar,-3.32442,114.591,0.0,183,48.16
452,banjarmasin-12-id,asia/makassar,-3.32442,114.591,1.0,197,51.84
453,banqiao-03tpq-tw,asia/taipei,25.01427,121.46719,0.0,26,68.42
454,banqiao-03tpq-tw,asia/taipei,25.01427,121.46719,1.0,12,31.58
455,banska bystrica-01-sk,europe/bratislava,48.73946,19.15349,0.0,135,68.18
456,banska bystrica-01-sk,europe/bratislava,48.73946,19.15349,1.0,63,31.82
457,banting-00-my,asia/kuala_lumpur,2.81667,101.5,0.0,366,55.62
458,banting-00-my,asia/kuala_lumpur,2.81667,101.5,1.0,292,44.38
459,banyuwangi-08-id,asia/jakarta,-8.2325,114.35755,0.0,35,62.5
460,banyuwangi-08-id,asia/jakarta,-8.2325,114.35755,1.0,21,37.5
461,barabai-12-id,asia/makassar,-2.58333,115.38333,0.0,59,59.6
462,barabai-12-id,asia/makassar,-2.58333,115.38333,1.0,40,40.4
463,baraki-55-dz,africa/algiers,36.66655,3.09606,0.0,142,67.62
464,baraki-55-dz,africa/algiers,36.66655,3.09606,1.0,68,32.38
465,baramati-16-in,asia/kolkata,18.15,74.58333,1.0,4,100.0
466,baran-24-in,asia/kolkata,25.1,76.51667,0.0,2,100.0
467,baranavichy-01-by,europe/minsk,53.1327,26.0139,0.0,2,100.0
468,barbacena-15-br,america/sao_paulo,-21.22583,-43.77361,0.0,36,72.0
469,barbacena-15-br,america/sao_paulo,-21.22583,-43.77361,1.0,14,28.0
470,barcelona-02-ve,america/caracas,10.13333,-64.7,0.0,166,58.45
471,barcelona-02-ve,america/caracas,10.13333,-64.7,1.0,118,41.55
472,barcelona-56b-es,europe/madrid,41.38879,2.15899,0.0,10769,52.01
473,barcelona-56b-es,europe/madrid,41.38879,2.15899,1.0,9936,47.99
474,barddhaman-28-in,asia/kolkata,23.24056,87.86944,0.0,9,56.25
475,barddhaman-28-in,asia/kolkata,23.24056,87.86944,1.0,7,43.75
476,bareilly-36-in,asia/kolkata,28.34702,79.42193,0.0,11,52.38
477,bareilly-36-in,asia/kolkata,28.34702,79.42193,1.0,10,47.62
478,bari-13ba-it,europe/rome,41.11773,16.85118,0.0,98,79.67
479,bari-13ba-it,europe/rome,41.11773,16.85118,1.0,25,20.33
480,barisal-85-bd,asia/dhaka,22.70497,90.37013,0.0,43,87.76
481,barisal-85-bd,asia/dhaka,22.70497,90.37013,1.0,6,12.24
482,barnala-23-in,asia/kolkata,30.37205,75.54537,0.0,3,60.0
483,barnala-23-in,asia/kolkata,30.37205,75.54537,1.0,2,40.0
484,barnaul-04-ru,asia/omsk,53.36056,83.76361,0.0,1,50.0
485,barnaul-04-ru,asia/omsk,53.36056,83.76361,1.0,1,50.0
486,barquisimeto-13-ve,america/caracas,10.07389,-69.32278,0.0,140,66.04
487,barquisimeto-13-ve,america/caracas,10.07389,-69.32278,1.0,72,33.96
488,barrancabermeja-26-co,america/bogota,7.06528,-73.85472,0.0,10,83.33
489,barrancabermeja-26-co,america/bogota,7.06528,-73.85472,1.0,2,16.67
490,barranquilla-04-co,america/bogota,10.96389,-74.79639,0.0,212,78.23
491,barranquilla-04-co,america/bogota,10.96389,-74.79639,1.0,59,21.77
492,barreiras-05-br,america/bahia,-12.15278,-44.99,0.0,6,66.67
493,barreiras-05-br,america/bahia,-12.15278,-44.99,1.0,3,33.33
494,barretos-27-br,america/sao_paulo,-20.55722,-48.56778,0.0,15,88.24
495,barretos-27-br,america/sao_paulo,-20.55722,-48.56778,1.0,2,11.76
496,barrie-08-ca,america/toronto,44.40011,-79.66634,0.0,125,75.76
497,barrie-08-ca,america/toronto,44.40011,-79.66634,1.0,40,24.24
498,baruni-34-in,asia/kolkata,25.47446,85.96681,1.0,8,100.0
499,basel-bs-ch,europe/zurich,47.5584,7.57327,0.0,723,50.74
500,basel-bs-ch,europe/zurich,47.5584,7.57327,1.0,702,49.26
501,basingstoke-engf2-gb,europe/london,51.26249,-1.08708,0.0,170,46.7
502,basingstoke-engf2-gb,europe/london,51.26249,-1.08708,1.0,194,53.3
503,basti-36-in,asia/kolkata,26.79446,82.73285,1.0,1,100.0
504,bat'umi-04-ge,asia/tbilisi,41.64159,41.63593,0.0,23,82.14
505,bat'umi-04-ge,asia/tbilisi,41.64159,41.63593,1.0,5,17.86
506,batang-07-id,asia/jakarta,-6.4846,110.7083,0.0,26,41.27
507,batang-07-id,asia/jakarta,-6.4846,110.7083,1.0,37,58.73
508,batangas-4009-ph,asia/manila,13.7567,121.0584,0.0,46,53.49
509,batangas-4009-ph,asia/manila,13.7567,121.0584,1.0,40,46.51
510,bath-enga4-gb,europe/london,51.37795,-2.35907,0.0,325,78.69
511,bath-enga4-gb,europe/london,51.37795,-2.35907,1.0,88,21.31
512,batman-76-tr,europe/istanbul,37.88738,41.13221,0.0,39,72.22
513,batman-76-tr,europe/istanbul,37.88738,41.13221,1.0,15,27.78
514,batna-03-dz,africa/algiers,35.55597,6.17414,0.0,3,50.0
515,batna-03-dz,africa/algiers,35.55597,6.17414,1.0,3,50.0
516,baton rouge-la033-us,america/chicago,30.45075,-91.15455,0.0,223,79.93
517,baton rouge-la033-us,america/chicago,30.45075,-91.15455,1.0,56,20.07
518,baturaja-32-id,asia/jakarta,-4.12891,104.16695,0.0,22,42.31
519,baturaja-32-id,asia/jakarta,-4.12891,104.16695,1.0,30,57.69
520,bauchi-46-ng,africa/lagos,10.31344,9.84327,0.0,75,82.42
521,bauchi-46-ng,africa/lagos,10.31344,9.84327,1.0,16,17.58
522,bauru-27-br,america/sao_paulo,-22.31472,-49.06056,0.0,32,66.67
523,bauru-27-br,america/sao_paulo,-22.31472,-49.06056,1.0,16,33.33
524,bayamon-021-pr,america/puerto_rico,18.39856,-66.15572,0.0,177,85.1
525,bayamon-021-pr,america/puerto_rico,18.39856,-66.15572,1.0,31,14.9
526,bayonne-9764-fr,europe/paris,43.48333,-1.48333,0.0,305,67.93
527,bayonne-9764-fr,europe/paris,43.48333,-1.48333,1.0,144,32.07
528,bayugan-1303-ph,asia/manila,8.75611,125.7675,0.0,1,100.0
529,beaumont-tx245-us,america/chicago,30.08605,-94.10185,0.0,34,58.62
530,beaumont-tx245-us,america/chicago,30.08605,-94.10185,1.0,24,41.38
531,beauvais-b660-fr,europe/paris,49.43333,2.08333,0.0,151,67.11
532,beauvais-b660-fr,europe/paris,49.43333,2.08333,1.0,74,32.89
533,beavercreek-oh057-us,america/new_york,39.70923,-84.06327,0.0,35,71.43
534,beavercreek-oh057-us,america/new_york,39.70923,-84.06327,1.0,14,28.57
535,beawar-24-in,asia/kolkata,26.10119,74.32028,0.0,1,50.0
536,beawar-24-in,asia/kolkata,26.10119,74.32028,1.0,1,50.0
537,bechar-38-dz,africa/algiers,31.61667,-2.21667,0.0,164,67.21
538,bechar-38-dz,africa/algiers,31.61667,-2.21667,1.0,80,32.79
539,bedford-engz5-gb,europe/london,52.13459,-0.46632,0.0,192,80.67
540,bedford-engz5-gb,europe/london,52.13459,-0.46632,1.0,46,19.33
541,beersheba-01-il,asia/jerusalem,31.25181,34.7913,0.0,153,62.2
542,beersheba-01-il,asia/jerusalem,31.25181,34.7913,1.0,93,37.8
543,behbahan-15-ir,asia/tehran,30.5959,50.2417,0.0,3,37.5
544,behbahan-15-ir,asia/tehran,30.5959,50.2417,1.0,5,62.5
545,beijing-22-cn,asia/shanghai,39.9075,116.39723,0.0,236,69.62
546,beijing-22-cn,asia/shanghai,39.9075,116.39723,1.0,103,30.38
547,beirut-04-lb,asia/beirut,33.88894,35.49442,0.0,1476,76.2
548,beirut-04-lb,asia/beirut,33.88894,35.49442,1.0,461,23.8
549,bejaia-18-dz,africa/algiers,36.75587,5.08433,0.0,6,27.27
550,bejaia-18-dz,africa/algiers,36.75587,5.08433,1.0,16,72.73
551,bekasi-30-id,asia/jakarta,-6.2349,106.9896,0.0,1330,47.57
552,bekasi-30-id,asia/jakarta,-6.2349,106.9896,1.0,1466,52.43
553,bekescsaba-03-hu,europe/budapest,46.68333,21.1,0.0,2,100.0
554,belem-16-br,america/belem,-1.45583,-48.50444,0.0,669,87.11
555,belem-16-br,america/belem,-1.45583,-48.50444,1.0,99,12.89
556,belfast-nirr3-gb,europe/london,54.58333,-5.93333,0.0,1523,71.23
557,belfast-nirr3-gb,europe/london,54.58333,-5.93333,1.0,615,28.77
558,belgaum-19-in,asia/kolkata,15.85212,74.50447,0.0,4,57.14
559,belgaum-19-in,asia/kolkata,15.85212,74.50447,1.0,3,42.86
560,belgrade-se-rs,europe/belgrade,44.80401,20.46513,0.0,368,17.52
561,belgrade-se-rs,europe/belgrade,44.80401,20.46513,1.0,1732,82.48
562,bellary-19-in,asia/kolkata,15.15,76.93333,0.0,1,100.0
563,belleville-08-ca,america/toronto,44.17876,-77.37053,0.0,11,73.33
564,belleville-08-ca,america/toronto,44.17876,-77.37053,1.0,4,26.67
565,belleville-il163-us,america/chicago,38.52005,-89.98399,0.0,69,81.18
566,belleville-il163-us,america/chicago,38.52005,-89.98399,1.0,16,18.82
567,belo horizonte-15-br,america/sao_paulo,-19.92083,-43.93778,0.0,2194,79.96
568,belo horizonte-15-br,america/sao_paulo,-19.92083,-43.93778,1.0,550,20.04
569,belorechensk-38-ru,europe/moscow,44.76733,39.87424,0.0,1,100.0
570,bend-or017-us,america/los_angeles,44.05817,-121.31531,0.0,23,92.0
571,bend-or017-us,america/los_angeles,44.05817,-121.31531,1.0,2,8.0
572,benghazi-69-ly,africa/tripoli,32.11667,20.06667,0.0,28,68.29
573,benghazi-69-ly,africa/tripoli,32.11667,20.06667,1.0,13,31.71
574,bengkulu-03-id,asia/jakarta,-3.80044,102.26554,0.0,82,53.95
575,bengkulu-03-id,asia/jakarta,-3.80044,102.26554,1.0,70,46.05
576,beni mellal-56091-ma,africa/casablanca,32.33725,-6.34984,0.0,1154,47.8
577,beni mellal-56091-ma,africa/casablanca,32.33725,-6.34984,1.0,1260,52.2
578,beni mered-20-dz,africa/algiers,36.52389,2.86131,0.0,67,59.29
579,beni mered-20-dz,africa/algiers,36.52389,2.86131,1.0,46,40.71
580,benin city-37-ng,africa/lagos,6.33504,5.62749,0.0,93,59.24
581,benin city-37-ng,africa/lagos,6.33504,5.62749,1.0,64,40.76
582,benoni-06eku-za,africa/johannesburg,-26.18848,28.32078,0.0,495,66.27
583,benoni-06eku-za,africa/johannesburg,-26.18848,28.32078,1.0,252,33.73
584,bensheim-05-de,europe/berlin,49.68369,8.61839,0.0,27,75.0
585,bensheim-05-de,europe/berlin,49.68369,8.61839,1.0,9,25.0
586,bergamo-09bg-it,europe/rome,45.69798,9.66895,0.0,332,66.0
587,bergamo-09bg-it,europe/rome,45.69798,9.66895,1.0,171,34.0
588,bergen-07-no,europe/oslo,60.39299,5.32415,0.0,86,76.79
589,bergen-07-no,europe/oslo,60.39299,5.32415,1.0,26,23.21
590,berkane-54113-ma,africa/casablanca,34.92,-2.32,0.0,4,100.0
591,berlin-1600-de,europe/berlin,52.52437,13.41053,0.0,3724,72.61
592,berlin-1600-de,europe/berlin,52.52437,13.41053,1.0,1405,27.39
593,bern-be246-ch,europe/zurich,46.94809,7.44744,0.0,2101,33.26
594,bern-be246-ch,europe/zurich,46.94809,7.44744,1.0,4215,66.74
595,besancon-a625-fr,europe/paris,47.24878,6.01815,0.0,110,69.62
596,besancon-a625-fr,europe/paris,47.24878,6.01815,1.0,48,30.38
597,bethlehem-03-za,africa/johannesburg,-28.23078,28.30707,0.0,2,66.67
598,bethlehem-03-za,africa/johannesburg,-28.23078,28.30707,1.0,1,33.33
599,bethlehem-pa095-us,america/new_york,40.62593,-75.37046,0.0,56,56.0
600,bethlehem-pa095-us,america/new_york,40.62593,-75.37046,1.0,44,44.0
601,bettiah-34-in,asia/kolkata,26.8024,84.49873,0.0,2,100.0
602,bhadrakh-21-in,asia/kolkata,21.05278,86.52,0.0,4,26.67
603,bhadrakh-21-in,asia/kolkata,21.05278,86.52,1.0,11,73.33
604,bhagalpur-34-in,asia/kolkata,25.24446,86.97183,0.0,18,19.15
605,bhagalpur-34-in,asia/kolkata,25.24446,86.97183,1.0,76,80.85
606,bhairab bazar-00-bd,asia/dhaka,24.0524,90.9764,0.0,1,100.0
607,bharatpur-00-np,asia/kathmandu,27.68333,84.43333,0.0,11,84.62
608,bharatpur-00-np,asia/kathmandu,27.68333,84.43333,1.0,2,15.38
609,bharatpur-24-in,asia/kolkata,27.21731,77.49009,0.0,1,100.0
610,bharuch-09-in,asia/kolkata,21.7,72.96667,0.0,1,100.0
611,bhatinda-23-in,asia/kolkata,30.20712,74.9414,0.0,6,37.5
612,bhatinda-23-in,asia/kolkata,30.20712,74.9414,1.0,10,62.5
613,bhatkal-19-in,asia/kolkata,13.96667,74.56667,0.0,3,33.33
614,bhatkal-19-in,asia/kolkata,13.96667,74.56667,1.0,6,66.67
615,bhavnagar-09-in,asia/kolkata,21.76667,72.15,0.0,12,66.67
616,bhavnagar-09-in,asia/kolkata,21.76667,72.15,1.0,6,33.33
617,bhilwara-24-in,asia/kolkata,25.34644,74.63523,0.0,3,42.86
618,bhilwara-24-in,asia/kolkata,25.34644,74.63523,1.0,4,57.14
619,bhimbar-06-pk,asia/karachi,32.97568,74.07926,0.0,71,63.96
620,bhimbar-06-pk,asia/karachi,32.97568,74.07926,1.0,40,36.04
621,bhind-35-in,asia/kolkata,26.56672,78.78728,0.0,1,100.0
622,bhopal-35-in,asia/kolkata,23.25469,77.40289,0.0,85,54.84
623,bhopal-35-in,asia/kolkata,23.25469,77.40289,1.0,70,45.16
624,bhubaneshwar-21-in,asia/kolkata,20.23333,85.83333,0.0,518,81.7
625,bhubaneshwar-21-in,asia/kolkata,20.23333,85.83333,1.0,116,18.3
626,bhuj-09-in,asia/kolkata,23.25397,69.66928,0.0,58,96.67
627,bhuj-09-in,asia/kolkata,23.25397,69.66928,1.0,2,3.33
628,bialystok-81-pl,europe/warsaw,53.13333,23.15,0.0,97,76.38
629,bialystok-81-pl,europe/warsaw,53.13333,23.15,1.0,30,23.62
630,bidar-19-in,asia/kolkata,17.9,77.55,0.0,1,100.0
631,bielefeld-07057-de,europe/berlin,52.03333,8.53333,0.0,44,67.69
632,bielefeld-07057-de,europe/berlin,52.03333,8.53333,1.0,21,32.31
633,bien hoa-43-vn,asia/ho_chi_minh,10.95,106.81667,0.0,51,87.93
634,bien hoa-43-vn,asia/ho_chi_minh,10.95,106.81667,1.0,7,12.07
635,bihac-01-ba,europe/sarajevo,44.81694,15.87083,0.0,202,63.12
636,bihac-01-ba,europe/sarajevo,44.81694,15.87083,1.0,118,36.88
637,bihar sharif-34-in,asia/kolkata,25.19729,85.52374,0.0,4,44.44
638,bihar sharif-34-in,asia/kolkata,25.19729,85.52374,1.0,5,55.56
639,bijapur-19-in,asia/kolkata,16.82442,75.71537,0.0,1,100.0
640,bikaner-24-in,asia/kolkata,28.02094,73.30749,0.0,2,33.33
641,bikaner-24-in,asia/kolkata,28.02094,73.30749,1.0,4,66.67
642,bila tserkva-13-ua,europe/kiev,49.80939,30.11209,0.0,2,6.25
643,bila tserkva-13-ua,europe/kiev,49.80939,30.11209,1.0,30,93.75
644,bilaspur-37-in,asia/kolkata,22.08333,82.15,0.0,6,66.67
645,bilaspur-37-in,asia/kolkata,22.08333,82.15,1.0,3,33.33
646,bilbao-59bi-es,europe/madrid,43.26271,-2.92528,0.0,269,67.93
647,bilbao-59bi-es,europe/madrid,43.26271,-2.92528,1.0,127,32.07
648,billings-mt111-us,america/denver,45.78329,-108.50069,0.0,86,67.72
649,billings-mt111-us,america/denver,45.78329,-108.50069,1.0,41,32.28
650,bingol-12-tr,europe/istanbul,38.88472,40.49389,0.0,3,75.0
651,bingol-12-tr,europe/istanbul,38.88472,40.49389,1.0,1,25.0
652,bintulu-11-my,asia/kuching,3.16667,113.03333,0.0,9,69.23
653,bintulu-11-my,asia/kuching,3.16667,113.03333,1.0,4,30.77
654,biratnagar-er07-np,asia/kathmandu,26.4831,87.28337,0.0,17,42.5
655,biratnagar-er07-np,asia/kathmandu,26.4831,87.28337,1.0,23,57.5
656,birganj-00-np,asia/kathmandu,27.01043,84.87735,0.0,6,66.67
657,birganj-00-np,asia/kathmandu,27.01043,84.87735,1.0,3,33.33
658,birjand-41-ir,asia/tehran,32.86628,59.22114,0.0,1,100.0
659,birkenhead-engq1-gb,europe/london,53.39337,-3.01479,0.0,1769,77.72
660,birkenhead-engq1-gb,europe/london,53.39337,-3.01479,1.0,507,22.28
661,birmingham-al073-us,america/chicago,33.52066,-86.80249,0.0,285,75.4
662,birmingham-al073-us,america/chicago,33.52066,-86.80249,1.0,93,24.6
663,birmingham-enga7-gb,europe/london,52.48142,-1.89983,0.0,2488,86.57
664,birmingham-enga7-gb,europe/london,52.48142,-1.89983,1.0,386,13.43
665,birnin kebbi-40-ng,africa/lagos,12.45389,4.1975,0.0,5,83.33
666,birnin kebbi-40-ng,africa/lagos,12.45389,4.1975,1.0,1,16.67
667,bishkek-01-kg,asia/bishkek,42.87,74.59,0.0,41,63.08
668,bishkek-01-kg,asia/bishkek,42.87,74.59,1.0,24,36.92
669,biysk-04-ru,asia/omsk,52.53639,85.20722,0.0,2,100.0
670,bizerte-18-tn,africa/tunis,37.27442,9.87391,0.0,1,50.0
671,bizerte-18-tn,africa/tunis,37.27442,9.87391,1.0,1,50.0
672,blackburn-enga8-gb,europe/london,53.75,-2.48333,0.0,377,83.59
673,blackburn-enga8-gb,europe/london,53.75,-2.48333,1.0,74,16.41
674,blackpool-enga9-gb,europe/london,53.81667,-3.05,0.0,628,83.96
675,blackpool-enga9-gb,europe/london,53.81667,-3.05,1.0,120,16.04
676,blagoveshchensk-05-ru,asia/yakutsk,50.27817,127.54074,0.0,1,100.0
677,blantyre-s24-mw,africa/blantyre,-15.78499,35.00854,0.0,17,85.0
678,blantyre-s24-mw,africa/blantyre,-15.78499,35.00854,1.0,3,15.0
679,blieskastel-0900-de,europe/berlin,49.23724,7.25617,0.0,233,67.54
680,blieskastel-0900-de,europe/berlin,49.23724,7.25617,1.0,112,32.46
681,bloemfontein-03man-za,africa/johannesburg,-29.12106,26.214,0.0,152,72.38
682,bloemfontein-03man-za,africa/johannesburg,-29.12106,26.214,1.0,58,27.62
683,bloomington-il113-us,america/chicago,40.4842,-88.99369,0.0,21,84.0
684,bloomington-il113-us,america/chicago,40.4842,-88.99369,1.0,4,16.0
685,blumenau-26-br,america/sao_paulo,-26.91944,-49.06611,0.0,389,81.04
686,blumenau-26-br,america/sao_paulo,-26.91944,-49.06611,1.0,91,18.96
687,boa vista-25-br,america/boa_vista,2.81972,-60.67333,0.0,101,90.18
688,boa vista-25-br,america/boa_vista,2.81972,-60.67333,1.0,11,9.82
689,bobbili-02-in,asia/kolkata,18.56667,83.36667,0.0,1,100.0
690,bocholt-07-de,europe/berlin,51.83879,6.61531,0.0,15,83.33
691,bocholt-07-de,europe/berlin,51.83879,6.61531,1.0,3,16.67
692,bogenhausen-02-de,europe/berlin,48.15221,11.61585,0.0,385,59.51
693,bogenhausen-02-de,europe/berlin,48.15221,11.61585,1.0,262,40.49
694,boghni-14-dz,africa/algiers,36.54222,3.95306,0.0,26,36.11
695,boghni-14-dz,africa/algiers,36.54222,3.95306,1.0,46,63.89
696,bogota-34-co,america/bogota,4.60971,-74.08175,0.0,947,26.23
697,bogota-34-co,america/bogota,4.60971,-74.08175,1.0,2663,73.77
698,bogra-83-bd,asia/dhaka,24.85,89.36667,0.0,12,54.55
699,bogra-83-bd,asia/dhaka,24.85,89.36667,1.0,10,45.45
700,boise-id001-us,america/boise,43.6135,-116.20345,0.0,118,58.71
701,boise-id001-us,america/boise,43.6135,-116.20345,1.0,83,41.29
702,bojonegoro-08-id,asia/jakarta,-7.1502,111.8817,0.0,60,50.42
703,bojonegoro-08-id,asia/jakarta,-7.1502,111.8817,1.0,59,49.58
704,bokaro-38-in,asia/kolkata,23.78333,85.96667,0.0,8,66.67
705,bokaro-38-in,asia/kolkata,23.78333,85.96667,1.0,4,33.33
706,bologna-05bo-it,europe/rome,44.49381,11.33875,0.0,121,72.89
707,bologna-05bo-it,europe/rome,44.49381,11.33875,1.0,45,27.11
708,bolton-engb1-gb,europe/london,53.58333,-2.43333,0.0,553,85.6
709,bolton-engb1-gb,europe/london,53.58333,-2.43333,1.0,93,14.4
710,bolzano-17bz-it,europe/rome,46.49272,11.33358,0.0,41,75.93
711,bolzano-17bz-it,europe/rome,46.49272,11.33358,1.0,13,24.07
712,bongaigaon-03-in,asia/kolkata,26.47703,90.55815,0.0,2,14.29
713,bongaigaon-03-in,asia/kolkata,26.47703,90.55815,1.0,12,85.71
714,bonn-07-de,europe/berlin,50.73438,7.09548,0.0,118,86.13
715,bonn-07-de,europe/berlin,50.73438,7.09548,1.0,19,13.87
716,bontang-14-id,asia/makassar,0.13333,117.5,0.0,13,65.0
717,bontang-14-id,asia/makassar,0.13333,117.5,1.0,7,35.0
718,bootle-eng00-gb,europe/london,53.46667,-3.01667,0.0,83,88.3
719,bootle-eng00-gb,europe/london,53.46667,-3.01667,1.0,11,11.7
720,bordeaux-9733-fr,europe/paris,44.84044,-0.5805,0.0,1382,67.55
721,bordeaux-9733-fr,europe/paris,44.84044,-0.5805,1.0,664,32.45
722,borough of bronx-ny005-us,america/new_york,40.84985,-73.86641,0.0,227,72.29
723,borough of bronx-ny005-us,america/new_york,40.84985,-73.86641,1.0,87,27.71
724,boston-ma025-us,america/new_york,42.35843,-71.05977,0.0,2040,81.86
725,boston-ma025-us,america/new_york,42.35843,-71.05977,1.0,452,18.14
726,bothaville-03-za,africa/johannesburg,-27.3887,26.61701,1.0,1,100.0
727,botshabelo-03man-za,africa/johannesburg,-29.27016,26.7052,0.0,2,66.67
728,botshabelo-03man-za,africa/johannesburg,-29.27016,26.7052,1.0,1,33.33
729,botucatu-27-br,america/sao_paulo,-22.88583,-48.445,0.0,21,72.41
730,botucatu-27-br,america/sao_paulo,-22.88583,-48.445,1.0,8,27.59
731,bouake-90-ci,africa/abidjan,7.69385,-5.03031,0.0,1,33.33
732,bouake-90-ci,africa/abidjan,7.69385,-5.03031,1.0,2,66.67
733,boulder-co013-us,america/denver,40.01499,-105.27055,0.0,139,86.88
734,boulder-co013-us,america/denver,40.01499,-105.27055,1.0,21,13.12
735,boulogne billancourt-a892-fr,europe/paris,48.83333,2.25,0.0,2364,63.24
736,boulogne billancourt-a892-fr,europe/paris,48.83333,2.25,1.0,1374,36.76
737,boumerdas-40-dz,africa/algiers,36.76639,3.47717,0.0,3,50.0
738,boumerdas-40-dz,africa/algiers,36.76639,3.47717,1.0,3,50.0
739,bournemouth-engb2-gb,europe/london,50.72048,-1.8795,0.0,178,86.41
740,bournemouth-engb2-gb,europe/london,50.72048,-1.8795,1.0,28,13.59
741,bowie-md033-us,america/new_york,38.94278,-76.73028,0.0,416,73.89
742,bowie-md033-us,america/new_york,38.94278,-76.73028,1.0,147,26.11
743,bracknell-engb3-gb,europe/london,51.41363,-0.75054,0.0,271,87.99
744,bracknell-engb3-gb,europe/london,51.41363,-0.75054,1.0,37,12.01
745,bradford-engb4-gb,europe/london,53.79391,-1.75206,0.0,717,82.6
746,bradford-engb4-gb,europe/london,53.79391,-1.75206,1.0,151,17.4
747,braga-04-pt,europe/lisbon,41.55032,-8.42005,0.0,209,80.08
748,braga-04-pt,europe/lisbon,41.55032,-8.42005,1.0,52,19.92
749,braganca paulista-27-br,america/sao_paulo,-22.95194,-46.54194,0.0,68,80.95
750,braganca paulista-27-br,america/sao_paulo,-22.95194,-46.54194,1.0,16,19.05
751,braganca-16-br,america/belem,-1.05361,-46.76556,0.0,15,100.0
752,brahmapur-21-in,asia/kolkata,19.31667,84.78333,0.0,16,76.19
753,brahmapur-21-in,asia/kolkata,19.31667,84.78333,1.0,5,23.81
754,braine l'alleud-walwbr-be,europe/brussels,50.68363,4.36784,0.0,137,74.86
755,braine l'alleud-walwbr-be,europe/brussels,50.68363,4.36784,1.0,46,25.14
756,brasilia-07-br,america/sao_paulo,-15.77972,-47.92972,0.0,1318,82.22
757,brasilia-07-br,america/sao_paulo,-15.77972,-47.92972,1.0,285,17.78
758,brasov-09-ro,europe/bucharest,45.64861,25.60613,0.0,32,57.14
759,brasov-09-ro,europe/bucharest,45.64861,25.60613,1.0,24,42.86
760,bratislava-02-sk,europe/bratislava,48.14816,17.10674,0.0,48,78.69
761,bratislava-02-sk,europe/bratislava,48.14816,17.10674,1.0,13,21.31
762,braunschweig-06-de,europe/berlin,52.26594,10.52673,0.0,44,81.48
763,braunschweig-06-de,europe/berlin,52.26594,10.52673,1.0,10,18.52
764,brazzaville-12-cg,africa/brazzaville,-4.26613,15.28318,0.0,2,100.0
765,breda-06-nl,europe/amsterdam,51.58656,4.77596,0.0,258,81.39
766,breda-06-nl,europe/amsterdam,51.58656,4.77596,1.0,59,18.61
767,bremen-0300-de,europe/berlin,53.07516,8.80777,0.0,100,78.74
768,bremen-0300-de,europe/berlin,53.07516,8.80777,1.0,27,21.26
769,bremerhaven-03-de,europe/berlin,53.55021,8.57674,0.0,3,75.0
770,bremerhaven-03-de,europe/berlin,53.55021,8.57674,1.0,1,25.0
771,brentwood-ny103-us,america/new_york,40.78121,-73.24623,0.0,351,74.05
772,brentwood-ny103-us,america/new_york,40.78121,-73.24623,1.0,123,25.95
773,brescia-09bs-it,europe/rome,45.52478,10.22727,0.0,57,75.0
774,brescia-09bs-it,europe/rome,45.52478,10.22727,1.0,19,25.0
775,brest-01-by,europe/minsk,52.09755,23.68775,0.0,5,62.5
776,brest-01-by,europe/minsk,52.09755,23.68775,1.0,3,37.5
777,brest-a229-fr,europe/paris,48.4,-4.48333,0.0,252,73.47
778,brest-a229-fr,europe/paris,48.4,-4.48333,1.0,91,26.53
779,bridgeport-ct001-us,america/new_york,41.16704,-73.20483,0.0,208,82.54
780,bridgeport-ct001-us,america/new_york,41.16704,-73.20483,1.0,44,17.46
781,bridgewater-nj035-us,america/new_york,40.60079,-74.64815,0.0,40,85.11
782,bridgewater-nj035-us,america/new_york,40.60079,-74.64815,1.0,7,14.89
783,brighton-enge2-gb,europe/london,50.82838,-0.13947,0.0,1091,82.46
784,brighton-enge2-gb,europe/london,50.82838,-0.13947,1.0,232,17.54
785,brindisi-13br-it,europe/rome,40.62773,17.93682,0.0,12,92.31
786,brindisi-13br-it,europe/rome,40.62773,17.93682,1.0,1,7.69
787,brisbane-04-au,australia/brisbane,-27.46794,153.02809,0.0,2689,67.33
788,brisbane-04-au,australia/brisbane,-27.46794,153.02809,1.0,1305,32.67
789,bristol-engb7-gb,europe/london,51.45523,-2.59665,0.0,517,77.51
790,bristol-engb7-gb,europe/london,51.45523,-2.59665,1.0,150,22.49
791,brits-10-za,africa/johannesburg,-25.63473,27.78022,0.0,52,78.79
792,brits-10-za,africa/johannesburg,-25.63473,27.78022,1.0,14,21.21
793,brno-78-cz,europe/prague,49.19522,16.60796,0.0,38,86.36
794,brno-78-cz,europe/prague,49.19522,16.60796,1.0,6,13.64
795,brockton-ma023-us,america/new_york,42.08343,-71.01838,0.0,65,77.38
796,brockton-ma023-us,america/new_york,42.08343,-71.01838,1.0,19,22.62
797,brooklyn-ny047-us,america/new_york,40.6501,-73.94958,0.0,1382,79.11
798,brooklyn-ny047-us,america/new_york,40.6501,-73.94958,1.0,365,20.89
799,brovary-13-ua,europe/kiev,50.51809,30.80671,1.0,1,100.0
800,brownsville-tx061-us,america/chicago,25.90175,-97.49748,0.0,55,91.67
801,brownsville-tx061-us,america/chicago,25.90175,-97.49748,1.0,5,8.33
802,brugge-vlgvwv-be,europe/brussels,51.20892,3.22424,0.0,316,78.8
803,brugge-vlgvwv-be,europe/brussels,51.20892,3.22424,1.0,85,21.2
804,brussels-brubru-be,europe/brussels,50.85045,4.34878,0.0,6753,63.86
805,brussels-brubru-be,europe/brussels,50.85045,4.34878,1.0,3821,36.14
806,bryansk-10-ru,europe/moscow,53.25209,34.37167,0.0,1,33.33
807,bryansk-10-ru,europe/moscow,53.25209,34.37167,1.0,2,66.67
808,bucaramanga-26-co,america/bogota,7.12539,-73.1198,0.0,156,79.19
809,bucaramanga-26-co,america/bogota,7.12539,-73.1198,1.0,41,20.81
810,bucharest-10-ro,europe/bucharest,44.43225,26.10626,0.0,522,66.58
811,bucharest-10-ro,europe/bucharest,44.43225,26.10626,1.0,262,33.42
812,budapest-05-hu,europe/budapest,47.49801,19.03991,0.0,438,82.95
813,budapest-05-hu,europe/budapest,47.49801,19.03991,1.0,90,17.05
814,buenaventura-29-co,america/bogota,3.8801,-77.03116,0.0,1,100.0
815,buenos aires-07-ar,america/argentina/buenos_aires,-34.61315,-58.37723,0.0,12340,47.69
816,buenos aires-07-ar,america/argentina/buenos_aires,-34.61315,-58.37723,1.0,13537,52.31
817,buffalo-ny029-us,america/new_york,42.88645,-78.87837,0.0,251,74.04
818,buffalo-ny029-us,america/new_york,42.88645,-78.87837,1.0,88,25.96
819,bujumbura-24-bi,africa/bujumbura,-3.3822,29.3644,0.0,7,50.0
820,bujumbura-24-bi,africa/bujumbura,-3.3822,29.3644,1.0,7,50.0
821,bulawayo-09-zw,africa/harare,-20.15,28.58333,0.0,106,74.65
822,bulawayo-09-zw,africa/harare,-20.15,28.58333,1.0,36,25.35
823,buldana-16-in,asia/kolkata,20.53333,76.18333,1.0,1,100.0
824,buli-04-tw,asia/taipei,23.96639,120.96952,0.0,30,75.0
825,buli-04-tw,asia/taipei,23.96639,120.96952,1.0,10,25.0
826,buraydah-08-sa,asia/riyadh,26.32599,43.97497,0.0,2003,43.03
827,buraydah-08-sa,asia/riyadh,26.32599,43.97497,1.0,2652,56.97
828,burewala-04-pk,asia/karachi,30.16667,72.65,0.0,5,71.43
829,burewala-04-pk,asia/karachi,30.16667,72.65,1.0,2,28.57
830,burgas-39-bg,europe/sofia,42.50606,27.46781,0.0,26,72.22
831,burgas-39-bg,europe/sofia,42.50606,27.46781,1.0,10,27.78
832,burgos-55bu-es,europe/madrid,42.35,-3.7,0.0,23,60.53
833,burgos-55bu-es,europe/madrid,42.35,-3.7,1.0,15,39.47
834,bursa-16-tr,europe/istanbul,40.19167,29.06111,0.0,474,69.81
835,bursa-16-tr,europe/istanbul,40.19167,29.06111,1.0,205,30.19
836,busan-10-kr,asia/seoul,35.10278,129.04028,0.0,96,67.61
837,busan-10-kr,asia/seoul,35.10278,129.04028,1.0,46,32.39
838,butembo-11-cd,africa/lubumbashi,0.14164,29.29117,0.0,3,33.33
839,butembo-11-cd,africa/lubumbashi,0.14164,29.29117,1.0,6,66.67
840,butwal-00-np,asia/kathmandu,27.70055,83.44836,0.0,17,77.27
841,butwal-00-np,asia/kathmandu,27.70055,83.44836,1.0,5,22.73
842,buxar-34-in,asia/kolkata,25.57473,83.97867,0.0,1,14.29
843,buxar-34-in,asia/kolkata,25.57473,83.97867,1.0,6,85.71
844,buxoro-02-uz,asia/samarkand,39.77472,64.42861,0.0,1,50.0
845,buxoro-02-uz,asia/samarkand,39.77472,64.42861,1.0,1,50.0
846,buzau-11-ro,europe/bucharest,45.15,26.83333,0.0,1,100.0
847,bydgoszcz-73-pl,europe/warsaw,53.1235,18.00762,0.0,143,76.47
848,bydgoszcz-73-pl,europe/warsaw,53.1235,18.00762,1.0,44,23.53
849,caaguazu-04-py,america/asuncion,-25.45,-56.01667,0.0,4,100.0
850,cabanatuan-0347-ph,asia/manila,15.4867,120.9676,0.0,40,86.96
851,cabanatuan-0347-ph,asia/manila,15.4867,120.9676,1.0,6,13.04
852,cacador-26-br,america/sao_paulo,-26.77528,-51.015,0.0,20,86.96
853,cacador-26-br,america/sao_paulo,-26.77528,-51.015,1.0,3,13.04
854,cacak-se17-rs,europe/belgrade,43.89139,20.34972,0.0,124,77.02
855,cacak-se17-rs,europe/belgrade,43.89139,20.34972,1.0,37,22.98
856,cachoeiro de itapemirim-08-br,america/sao_paulo,-20.84889,-41.11278,0.0,23,85.19
857,cachoeiro de itapemirim-08-br,america/sao_paulo,-20.84889,-41.11278,1.0,4,14.81
858,caen-9914-fr,europe/paris,49.18585,-0.35912,0.0,570,73.26
859,caen-9914-fr,europe/paris,49.18585,-0.35912,1.0,208,26.74
860,cagayan de oro-1043-ph,asia/manila,8.48222,124.64722,0.0,62,52.99
861,cagayan de oro-1043-ph,asia/manila,8.48222,124.64722,1.0,55,47.01
862,cagliari-14ca-it,europe/rome,39.20738,9.13462,0.0,81,81.0
863,cagliari-14ca-it,europe/rome,39.20738,9.13462,1.0,19,19.0
864,cairns-04-au,australia/brisbane,-16.92304,145.76625,0.0,55,77.46
865,cairns-04-au,australia/brisbane,-16.92304,145.76625,1.0,16,22.54
866,cairo-11-eg,africa/cairo,30.06263,31.24967,0.0,1624,61.82
867,cairo-11-eg,africa/cairo,30.06263,31.24967,1.0,1003,38.18
868,cajamarca-06-pe,america/lima,-7.16378,-78.50027,0.0,10,71.43
869,cajamarca-06-pe,america/lima,-7.16378,-78.50027,1.0,4,28.57
870,calabar-22-ng,africa/lagos,4.9517,8.322,0.0,104,80.0
871,calabar-22-ng,africa/lagos,4.9517,8.322,1.0,26,20.0
872,calabozo-12-ve,america/caracas,8.92416,-67.42929,0.0,16,64.0
873,calabozo-12-ve,america/caracas,8.92416,-67.42929,1.0,9,36.0
874,calais-b462-fr,europe/paris,50.9581,1.85205,0.0,240,61.86
875,calais-b462-fr,europe/paris,50.9581,1.85205,1.0,148,38.14
876,calama-0322-cl,america/santiago,-22.46667,-68.93333,0.0,7,87.5
877,calama-0322-cl,america/santiago,-22.46667,-68.93333,1.0,1,12.5
878,calamba-4033-ph,asia/manila,14.21167,121.16528,0.0,60,50.85
879,calamba-4033-ph,asia/manila,14.21167,121.16528,1.0,58,49.15
880,calgary-01-ca,america/edmonton,51.05011,-114.08529,0.0,1984,38.69
881,calgary-01-ca,america/edmonton,51.05011,-114.08529,1.0,3144,61.31
882,cali-29-co,america/bogota,3.43722,-76.5225,0.0,244,74.62
883,cali-29-co,america/bogota,3.43722,-76.5225,1.0,83,25.38
884,calicut-13-in,asia/kolkata,11.25,75.76667,0.0,100,84.03
885,calicut-13-in,asia/kolkata,11.25,75.76667,1.0,19,15.97
886,callao-07-pe,america/lima,-12.06667,-77.15,0.0,185,76.45
887,callao-07-pe,america/lima,-12.06667,-77.15,1.0,57,23.55
888,camayenne-04-gn,africa/conakry,9.535,-13.68778,0.0,39,86.67
889,camayenne-04-gn,africa/conakry,9.535,-13.68778,1.0,6,13.33
890,cambridge-engc3-gb,europe/london,52.2,0.11667,0.0,451,82.15
891,cambridge-engc3-gb,europe/london,52.2,0.11667,1.0,98,17.85
892,camden-nj007-us,america/new_york,39.92595,-75.11962,0.0,197,83.12
893,camden-nj007-us,america/new_york,39.92595,-75.11962,1.0,40,16.88
894,campeche-04-mx,america/merida,19.85,-90.53333,0.0,15,83.33
895,campeche-04-mx,america/merida,19.85,-90.53333,1.0,3,16.67
896,campina grande-17-br,america/fortaleza,-7.23056,-35.88111,0.0,141,89.24
897,campina grande-17-br,america/fortaleza,-7.23056,-35.88111,1.0,17,10.76
898,campinas-27-br,america/sao_paulo,-22.90556,-47.06083,0.0,436,82.11
899,campinas-27-br,america/sao_paulo,-22.90556,-47.06083,1.0,95,17.89
900,campo grande-11-br,america/campo_grande,-20.44278,-54.64639,0.0,134,88.16
901,campo grande-11-br,america/campo_grande,-20.44278,-54.64639,1.0,18,11.84
902,campo mourao-18-br,america/sao_paulo,-24.04556,-52.38306,0.0,13,72.22
903,campo mourao-18-br,america/sao_paulo,-24.04556,-52.38306,1.0,5,27.78
904,campos-21-br,america/sao_paulo,-21.75,-41.3,0.0,71,87.65
905,campos-21-br,america/sao_paulo,-21.75,-41.3,1.0,10,12.35
906,can duoc-24-vn,asia/ho_chi_minh,10.61667,106.66667,1.0,1,100.0
907,can tho-87-vn,asia/ho_chi_minh,10.03333,105.78333,0.0,8,72.73
908,can tho-87-vn,asia/ho_chi_minh,10.03333,105.78333,1.0,3,27.27
909,canakkale-17-tr,europe/istanbul,40.14556,26.40639,0.0,52,81.25
910,canakkale-17-tr,europe/istanbul,40.14556,26.40639,1.0,12,18.75
911,canberra-01-au,australia/sydney,-35.28346,149.12807,0.0,225,63.92
912,canberra-01-au,australia/sydney,-35.28346,149.12807,1.0,127,36.08
913,cancun-23-mx,america/cancun,21.17429,-86.84656,0.0,379,79.96
914,cancun-23-mx,america/cancun,21.17429,-86.84656,1.0,95,20.04
915,canton-oh151-us,america/new_york,40.79895,-81.37845,0.0,31,83.78
916,canton-oh151-us,america/new_york,40.79895,-81.37845,1.0,6,16.22
917,cao lanh-09-vn,asia/ho_chi_minh,10.45,105.63333,0.0,6,85.71
918,cao lanh-09-vn,asia/ho_chi_minh,10.45,105.63333,1.0,1,14.29
919,cap haitien-09-au,prince,19.75778,-72.20417,0.0,23,76.67
920,cap haitien-09-au,prince,19.75778,-72.20417,1.0,7,23.33
921,capao da canoa-23-br,america/sao_paulo,-29.74556,-50.00972,0.0,261,78.61
922,capao da canoa-23-br,america/sao_paulo,-29.74556,-50.00972,1.0,71,21.39
923,cape coast-04-gh,africa/accra,5.10535,-1.2466,0.0,19,54.29
924,cape coast-04-gh,africa/accra,5.10535,-1.2466,1.0,16,45.71
925,cape coral-fl071-us,america/new_york,26.56285,-81.94953,0.0,123,77.36
926,cape coral-fl071-us,america/new_york,26.56285,-81.94953,1.0,36,22.64
927,cape town-11cpt-za,africa/johannesburg,-33.92584,18.42322,0.0,2147,77.17
928,cape town-11cpt-za,africa/johannesburg,-33.92584,18.42322,1.0,635,22.83
929,caracas-25-ve,america/caracas,10.48801,-66.87919,0.0,1132,61.02
930,caracas-25-ve,america/caracas,10.48801,-66.87919,1.0,723,38.98
931,caraguatatuba-27-br,america/sao_paulo,-23.62028,-45.41306,0.0,222,75.51
932,caraguatatuba-27-br,america/sao_paulo,-23.62028,-45.41306,1.0,72,24.49
933,cardiff-wlsx5-gb,europe/london,51.48,-3.18,0.0,1471,65.35
934,cardiff-wlsx5-gb,europe/london,51.48,-3.18,1.0,780,34.65
935,carmel-in057-us,america/indiana/indianapolis,39.97837,-86.11804,0.0,655,78.92
936,carmel-in057-us,america/indiana/indianapolis,39.97837,-86.11804,1.0,175,21.08
937,carolina-031-pr,america/puerto_rico,18.38078,-65.95739,0.0,249,72.59
938,carolina-031-pr,america/puerto_rico,18.38078,-65.95739,1.0,94,27.41
939,cartagena-35-co,america/bogota,10.39972,-75.51444,0.0,45,68.18
940,cartagena-35-co,america/bogota,10.39972,-75.51444,1.0,21,31.82
941,cartago-29-co,america/bogota,4.74639,-75.91167,0.0,2,66.67
942,cartago-29-co,america/bogota,4.74639,-75.91167,1.0,1,33.33
943,caruaru-30-br,america/recife,-8.28333,-35.97611,0.0,86,83.5
944,caruaru-30-br,america/recife,-8.28333,-35.97611,1.0,17,16.5
945,carupano-19-ve,america/caracas,10.66781,-63.25849,0.0,1,50.0
946,carupano-19-ve,america/caracas,10.66781,-63.25849,1.0,1,50.0
947,casablanca-45141-ma,africa/casablanca,33.58831,-7.61138,0.0,8100,64.3
948,casablanca-45141-ma,africa/casablanca,33.58831,-7.61138,1.0,4497,35.7
949,cascavel-06-br,america/fortaleza,-4.13306,-38.24194,0.0,55,90.16
950,cascavel-06-br,america/fortaleza,-4.13306,-38.24194,1.0,6,9.84
951,cascavel-18-br,america/sao_paulo,-24.95583,-53.45528,0.0,48,81.36
952,cascavel-18-br,america/sao_paulo,-24.95583,-53.45528,1.0,11,18.64
953,caserta-04ce-it,europe/rome,41.08322,14.33493,0.0,75,76.53
954,caserta-04ce-it,europe/rome,41.08322,14.33493,1.0,23,23.47
955,castanhal-16-br,america/belem,-1.29389,-47.92639,0.0,15,57.69
956,castanhal-16-br,america/belem,-1.29389,-47.92639,1.0,11,42.31
957,castello de la plana-60cs-es,europe/madrid,39.98333,-0.03333,0.0,174,9.52
958,castello de la plana-60cs-es,europe/madrid,39.98333,-0.03333,1.0,1653,90.48
959,catanauan-40h2-ph,asia/manila,13.5926,122.3215,0.0,1,25.0
960,catanauan-40h2-ph,asia/manila,13.5926,122.3215,1.0,3,75.0
961,catanduva-27-br,america/sao_paulo,-21.13778,-48.97278,0.0,2,100.0
962,catania-15ct-it,europe/rome,37.50213,15.08719,0.0,131,68.59
963,catania-15ct-it,europe/rome,37.50213,15.08719,1.0,60,31.41
964,catanzaro-03cz-it,europe/rome,38.89079,16.5987,0.0,61,77.22
965,catanzaro-03cz-it,europe/rome,38.89079,16.5987,1.0,18,22.78
966,catbalogan-0855-ph,asia/manila,11.77528,124.88611,0.0,1,25.0
967,catbalogan-0855-ph,asia/manila,11.77528,124.88611,1.0,3,75.0
968,catia la mar-26-ve,america/caracas,10.60383,-67.03034,0.0,45,54.22
969,catia la mar-26-ve,america/caracas,10.60383,-67.03034,1.0,38,45.78
970,caxias do sul-23-br,america/sao_paulo,-29.16806,-51.17944,0.0,209,81.32
971,caxias do sul-23-br,america/sao_paulo,-29.16806,-51.17944,1.0,48,18.68
972,cayenne-gf973-gf,america/cayenne,4.93333,-52.33333,0.0,19,48.72
973,cayenne-gf973-gf,america/cayenne,4.93333,-52.33333,1.0,20,51.28
974,cebu city-0721-ph,asia/manila,10.31672,123.89071,0.0,110,42.64
975,cebu city-0721-ph,asia/manila,10.31672,123.89071,1.0,148,57.36
976,cedar rapids-ia113-us,america/chicago,42.00833,-91.64407,0.0,120,86.96
977,cedar rapids-ia113-us,america/chicago,42.00833,-91.64407,1.0,18,13.04
978,celaya-11-mx,america/mexico_city,20.52353,-100.81566,0.0,11,73.33
979,celaya-11-mx,america/mexico_city,20.52353,-100.81566,1.0,4,26.67
980,centennial-co005-us,america/denver,39.57916,-104.87692,0.0,31,86.11
981,centennial-co005-us,america/denver,39.57916,-104.87692,1.0,5,13.89
982,centreville-va059-us,america/new_york,38.84039,-77.42888,0.0,629,78.72
983,centreville-va059-us,america/new_york,38.84039,-77.42888,1.0,170,21.28
984,cepu-07-id,asia/jakarta,-7.1475,111.5906,0.0,232,69.25
985,cepu-07-id,asia/jakarta,-7.1475,111.5906,1.0,103,30.75
986,ceske budejovice-79-cz,europe/prague,48.97447,14.47434,0.0,25,43.1
987,ceske budejovice-79-cz,europe/prague,48.97447,14.47434,1.0,33,56.9
988,cha am-56-th,asia/bangkok,12.8,99.96667,0.0,6,66.67
989,cha am-56-th,asia/bangkok,12.8,99.96667,1.0,3,33.33
990,chakwal-04-pk,asia/karachi,32.93338,72.85853,0.0,14,46.67
991,chakwal-04-pk,asia/karachi,32.93338,72.85853,1.0,16,53.33
992,chalon sur saone-a171-fr,europe/paris,46.78333,4.85,0.0,247,65.69
993,chalon sur saone-a171-fr,europe/paris,46.78333,4.85,1.0,129,34.31
994,chalus-35-ir,asia/tehran,36.655,51.4204,1.0,1,100.0
995,chambery-b973-fr,europe/paris,45.56667,5.93333,0.0,87,63.04
996,chambery-b973-fr,europe/paris,45.56667,5.93333,1.0,51,36.96
997,champaign-il019-us,america/chicago,40.11642,-88.24338,0.0,660,59.03
998,champaign-il019-us,america/chicago,40.11642,-88.24338,1.0,458,40.97
999,chamrajnagar-19-in,asia/kolkata,11.92312,76.93949,0.0,7,63.64
1000,chamrajnagar-19-in,asia/kolkata,11.92312,76.93949,1.0,4,36.36
1001,chandigarh-05-in,asia/kolkata,30.73629,76.7884,0.0,161,51.77
1002,chandigarh-05-in,asia/kolkata,30.73629,76.7884,1.0,150,48.23
1003,chandpur-36-in,asia/kolkata,29.13506,78.26887,0.0,1,100.0
1004,chandrapur-16-in,asia/kolkata,19.95,79.3,0.0,5,50.0
1005,chandrapur-16-in,asia/kolkata,19.95,79.3,1.0,5,50.0
1006,changsha-11-cn,asia/shanghai,28.2,112.96667,0.0,1,100.0
1007,changwon-20-kr,asia/seoul,35.22806,128.68111,0.0,10,55.56
1008,changwon-20-kr,asia/seoul,35.22806,128.68111,1.0,8,44.44
1009,changzhou-04-cn,asia/shanghai,31.77358,119.95401,0.0,1,100.0
1010,channapatna-19-in,asia/kolkata,12.65,77.21667,0.0,3,100.0
1011,chanthaburi-48-th,asia/bangkok,12.60961,102.10447,0.0,6,66.67
1012,chanthaburi-48-th,asia/bangkok,12.60961,102.10447,1.0,3,33.33
1013,chapeco-26-br,america/sao_paulo,-27.09639,-52.61833,0.0,48,76.19
1014,chapeco-26-br,america/sao_paulo,-27.09639,-52.61833,1.0,15,23.81
1015,charleroi-walwht-be,europe/brussels,50.41136,4.44448,0.0,319,76.13
1016,charleroi-walwht-be,europe/brussels,50.41136,4.44448,1.0,100,23.87
1017,charleston-sc019-us,america/new_york,32.77657,-79.93092,0.0,86,67.72
1018,charleston-sc019-us,america/new_york,32.77657,-79.93092,1.0,41,32.28
1019,charlotte-nc119-us,america/new_york,35.22709,-80.84313,0.0,1015,71.08
1020,charlotte-nc119-us,america/new_york,35.22709,-80.84313,1.0,413,28.92
1021,chartres-a328-fr,europe/paris,48.44685,1.48925,0.0,127,61.65
1022,chartres-a328-fr,europe/paris,48.44685,1.48925,1.0,79,38.35
1023,chatham kent-08-ca,america/toronto,42.40009,-82.1831,0.0,21,95.45
1024,chatham kent-08-ca,america/toronto,42.40009,-82.1831,1.0,1,4.55
1025,chattanooga-tn065-us,america/new_york,35.04563,-85.30968,0.0,122,67.03
1026,chattanooga-tn065-us,america/new_york,35.04563,-85.30968,1.0,60,32.97
1027,cheboksary-16-ru,europe/moscow,56.13222,47.25194,0.0,1,100.0
1028,chelghoum el aid-48-dz,africa/algiers,36.16286,6.16651,0.0,1,100.0
1029,chelm-75-pl,europe/warsaw,51.14312,23.4716,0.0,2,100.0
1030,chelyabinsk-13-ru,asia/yekaterinburg,55.15444,61.42972,0.0,2,66.67
1031,chelyabinsk-13-ru,asia/yekaterinburg,55.15444,61.42972,1.0,1,33.33
1032,chemnitz-13145-de,europe/berlin,50.83333,12.91667,0.0,38,74.51
1033,chemnitz-13145-de,europe/berlin,50.83333,12.91667,1.0,13,25.49
1034,chengdu-32-cn,asia/chongqing,30.66667,104.06667,0.0,6,66.67
1035,chengdu-32-cn,asia/chongqing,30.66667,104.06667,1.0,3,33.33
1036,chennai-25-in,asia/kolkata,13.08784,80.27847,0.0,1219,63.23
1037,chennai-25-in,asia/kolkata,13.08784,80.27847,1.0,709,36.77
1038,cheongju-05-kr,asia/seoul,36.63722,127.48972,0.0,61,67.78
1039,cheongju-05-kr,asia/seoul,36.63722,127.48972,1.0,29,32.22
1040,cherkasy-01-ua,europe/kiev,49.42854,32.06207,0.0,70,37.04
1041,cherkasy-01-ua,europe/kiev,49.42854,32.06207,1.0,119,62.96
1042,cherkessk-27-ru,europe/moscow,44.22333,42.05778,0.0,1,50.0
1043,cherkessk-27-ru,europe/moscow,44.22333,42.05778,1.0,1,50.0
1044,chernihiv-02-ua,europe/kiev,51.50551,31.28488,0.0,26,34.21
1045,chernihiv-02-ua,europe/kiev,51.50551,31.28488,1.0,50,65.79
1046,chernivtsi-03-ua,europe/kiev,48.29149,25.94034,0.0,5,21.74
1047,chernivtsi-03-ua,europe/kiev,48.29149,25.94034,1.0,18,78.26
1048,chervonograd-15-ua,europe/kiev,50.39105,24.23514,0.0,3,75.0
1049,chervonograd-15-ua,europe/kiev,50.39105,24.23514,1.0,1,25.0
1050,chesapeake-va550-us,america/new_york,36.81904,-76.27494,0.0,47,88.68
1051,chesapeake-va550-us,america/new_york,36.81904,-76.27494,1.0,6,11.32
1052,chester-engz8-gb,europe/london,53.1905,-2.89189,0.0,710,75.45
1053,chester-engz8-gb,europe/london,53.1905,-2.89189,1.0,231,24.55
1054,chester-pa045-us,america/new_york,39.84956,-75.35575,0.0,127,60.19
1055,chester-pa045-us,america/new_york,39.84956,-75.35575,1.0,84,39.81
1056,chetumal-23-mx,america/cancun,18.5,-88.3,0.0,30,71.43
1057,chetumal-23-mx,america/cancun,18.5,-88.3,1.0,12,28.57
1058,chhatarpur-35-in,asia/kolkata,24.91422,79.5878,0.0,41,33.33
1059,chhatarpur-35-in,asia/kolkata,24.91422,79.5878,1.0,82,66.67
1060,chiang mai-02-th,asia/bangkok,18.79038,98.98468,0.0,97,56.07
1061,chiang mai-02-th,asia/bangkok,18.79038,98.98468,1.0,76,43.93
1062,chiang rai-03-th,asia/bangkok,19.90858,99.8325,0.0,18,51.43
1063,chiang rai-03-th,asia/bangkok,19.90858,99.8325,1.0,17,48.57
1064,chiba shi-04-jp,asia/tokyo,35.60472,140.12333,0.0,949,51.77
1065,chiba shi-04-jp,asia/tokyo,35.60472,140.12333,1.0,884,48.23
1066,chicago-il031-us,america/chicago,41.85003,-87.65005,0.0,3366,74.62
1067,chicago-il031-us,america/chicago,41.85003,-87.65005,1.0,1145,25.38
1068,chichicastenango-14-gt,america/guatemala,14.93333,-91.11667,0.0,2,100.0
1069,chiclayo-14-pe,america/lima,-6.77361,-79.84167,0.0,33,78.57
1070,chiclayo-14-pe,america/lima,-6.77361,-79.84167,1.0,9,21.43
1071,chico-ca007-us,america/los_angeles,39.72849,-121.83748,0.0,28,77.78
1072,chico-ca007-us,america/los_angeles,39.72849,-121.83748,1.0,8,22.22
1073,chieti-01ch-it,europe/rome,42.36094,14.13801,0.0,9,50.0
1074,chieti-01ch-it,europe/rome,42.36094,14.13801,1.0,9,50.0
1075,chihuahua-06-mx,america/chihuahua,28.63333,-106.08333,0.0,17,94.44
1076,chihuahua-06-mx,america/chihuahua,28.63333,-106.08333,1.0,1,5.56
1077,chillan-0684-cl,america/santiago,-36.60664,-72.10344,0.0,6,60.0
1078,chillan-0684-cl,america/santiago,-36.60664,-72.10344,1.0,4,40.0
1079,chilpancingo de los bravos-12-mx,america/mexico_city,17.55,-99.5,0.0,12,80.0
1080,chilpancingo de los bravos-12-mx,america/mexico_city,17.55,-99.5,1.0,3,20.0
1081,chimbote-02-pe,america/lima,-9.08528,-78.57833,0.0,3,100.0
1082,chincha alta-11-pe,america/lima,-13.40985,-76.13235,0.0,20,71.43
1083,chincha alta-11-pe,america/lima,-13.40985,-76.13235,1.0,8,28.57
1084,chinju-20-kr,asia/seoul,35.19278,128.08472,0.0,2,100.0
1085,chisinau-57-md,europe/chisinau,47.00556,28.8575,0.0,3,42.86
1086,chisinau-57-md,europe/chisinau,47.00556,28.8575,1.0,4,57.14
1087,chita-93-ru,asia/yakutsk,52.03171,113.50087,0.0,1,100.0
1088,chittagong-84-bd,asia/dhaka,22.3384,91.83168,0.0,212,69.51
1089,chittagong-84-bd,asia/dhaka,22.3384,91.83168,1.0,93,30.49
1090,chittaurgarh-24-in,asia/kolkata,24.88963,74.62403,0.0,4,66.67
1091,chittaurgarh-24-in,asia/kolkata,24.88963,74.62403,1.0,2,33.33
1092,chon buri-46-th,asia/bangkok,13.3622,100.98345,0.0,13,44.83
1093,chon buri-46-th,asia/bangkok,13.3622,100.98345,1.0,16,55.17
1094,chongqing-33-cn,asia/chongqing,29.56278,106.55278,0.0,9,69.23
1095,chongqing-33-cn,asia/chongqing,29.56278,106.55278,1.0,4,30.77
1096,christchurch-e9060-nz,pacific/auckland,-43.53333,172.63333,0.0,282,47.64
1097,christchurch-e9060-nz,pacific/auckland,-43.53333,172.63333,1.0,310,52.36
1098,chuhar kana-04-pk,asia/karachi,31.75,73.8,0.0,14,63.64
1099,chuhar kana-04-pk,asia/karachi,31.75,73.8,1.0,8,36.36
1100,chuncheon-06-kr,asia/seoul,37.87472,127.73417,0.0,67,57.76
1101,chuncheon-06-kr,asia/seoul,37.87472,127.73417,1.0,49,42.24
1102,ciego de avila-07-cu,america/havana,21.84,-78.76194,1.0,3,100.0
1103,cienfuegos-08-cu,america/havana,22.14611,-80.43556,0.0,20,86.96
1104,cienfuegos-08-cu,america/havana,22.14611,-80.43556,1.0,3,13.04
1105,cikampek-30-id,asia/jakarta,-6.41972,107.45583,0.0,121,42.91
1106,cikampek-30-id,asia/jakarta,-6.41972,107.45583,1.0,161,57.09
1107,cikupa-30-id,asia/jakarta,-6.23639,106.50833,0.0,306,56.56
1108,cikupa-30-id,asia/jakarta,-6.23639,106.50833,1.0,235,43.44
1109,cincinnati-oh061-us,america/new_york,39.162,-84.45689,0.0,592,70.48
1110,cincinnati-oh061-us,america/new_york,39.162,-84.45689,1.0,248,29.52
1111,cipolletti-16-ar,america/argentina/salta,-38.93392,-67.99032,0.0,26,72.22
1112,cipolletti-16-ar,america/argentina/salta,-38.93392,-67.99032,1.0,10,27.78
1113,cirebon-30-id,asia/jakarta,-6.7063,108.557,0.0,179,30.6
1114,cirebon-30-id,asia/jakarta,-6.7063,108.557,1.0,406,69.4
1115,city of balikpapan-14-id,asia/makassar,-1.24204,116.89419,0.0,113,51.6
1116,city of balikpapan-14-id,asia/makassar,-1.24204,116.89419,1.0,106,48.4
1117,city of london-enggla-gb,europe/london,51.51279,-0.09184,0.0,118384,59.76
1118,city of london-enggla-gb,europe/london,51.51279,-0.09184,1.0,79717,40.24
1119,ciudad acuna-07-mx,america/matamoros,29.32322,-100.95217,0.0,2,66.67
1120,ciudad acuna-07-mx,america/matamoros,29.32322,-100.95217,1.0,1,33.33
1121,ciudad bolivar-06-ve,america/caracas,8.12923,-63.54086,0.0,22,47.83
1122,ciudad bolivar-06-ve,america/caracas,8.12923,-63.54086,1.0,24,52.17
1123,ciudad del carmen-04-mx,america/merida,18.64973,-91.82471,0.0,13,68.42
1124,ciudad del carmen-04-mx,america/merida,18.64973,-91.82471,1.0,6,31.58
1125,ciudad delicias-06-mx,america/chihuahua,28.19013,-105.47012,0.0,8,72.73
1126,ciudad delicias-06-mx,america/chihuahua,28.19013,-105.47012,1.0,3,27.27
1127,ciudad guayana-06-ve,america/caracas,8.35122,-62.64102,0.0,72,55.38
1128,ciudad guayana-06-ve,america/caracas,8.35122,-62.64102,1.0,58,44.62
1129,ciudad guzman-14-mx,america/mexico_city,19.70466,-103.4617,0.0,8,72.73
1130,ciudad guzman-14-mx,america/mexico_city,19.70466,-103.4617,1.0,3,27.27
1131,ciudad juarez-06-mx,america/ojinaga,31.73333,-106.48333,0.0,69,68.32
1132,ciudad juarez-06-mx,america/ojinaga,31.73333,-106.48333,1.0,32,31.68
1133,ciudad obregon-26-mx,america/hermosillo,27.49221,-109.9395,0.0,4,66.67
1134,ciudad obregon-26-mx,america/hermosillo,27.49221,-109.9395,1.0,2,33.33
1135,ciudad real-54cr-es,europe/madrid,38.98333,-3.93333,0.0,25,80.65
1136,ciudad real-54cr-es,europe/madrid,38.98333,-3.93333,1.0,6,19.35
1137,ciudad valles-24-mx,america/mexico_city,21.98333,-99.01667,0.0,6,46.15
1138,ciudad valles-24-mx,america/mexico_city,21.98333,-99.01667,1.0,7,53.85
1139,ciudad victoria-28-mx,america/monterrey,23.73333,-99.13333,0.0,30,58.82
1140,ciudad victoria-28-mx,america/monterrey,23.73333,-99.13333,1.0,21,41.18
1141,cizre-80-tr,europe/istanbul,37.32722,42.19028,0.0,2,100.0
1142,clarksville-tn125-us,america/chicago,36.52977,-87.35945,0.0,172,80.37
1143,clarksville-tn125-us,america/chicago,36.52977,-87.35945,1.0,42,19.63
1144,clermont ferrand-9863-fr,europe/paris,45.77966,3.08628,0.0,1038,71.14
1145,clermont ferrand-9863-fr,europe/paris,45.77966,3.08628,1.0,421,28.86
1146,cleveland-oh035-us,america/new_york,41.4995,-81.69541,0.0,1145,77.42
1147,cleveland-oh035-us,america/new_york,41.4995,-81.69541,1.0,334,22.58
1148,cluj napoca-13-ro,europe/bucharest,46.76667,23.6,0.0,42,77.78
1149,cluj napoca-13-ro,europe/bucharest,46.76667,23.6,1.0,12,22.22
1150,coatzacoalcos-30-mx,america/mexico_city,18.14212,-94.4371,0.0,22,75.86
1151,coatzacoalcos-30-mx,america/mexico_city,18.14212,-94.4371,1.0,7,24.14
1152,cochabamba-02-bo,america/la_paz,-17.3895,-66.1568,0.0,18,72.0
1153,cochabamba-02-bo,america/la_paz,-17.3895,-66.1568,1.0,7,28.0
1154,cochin-13-in,asia/kolkata,9.93988,76.26022,0.0,270,80.12
1155,cochin-13-in,asia/kolkata,9.93988,76.26022,1.0,67,19.88
1156,codo-13-br,america/fortaleza,-4.45528,-43.88556,0.0,40,68.97
1157,codo-13-br,america/fortaleza,-4.45528,-43.88556,1.0,18,31.03
1158,coimbatore-25-in,asia/kolkata,10.9925,76.96139,0.0,90,65.22
1159,coimbatore-25-in,asia/kolkata,10.9925,76.96139,1.0,48,34.78
1160,coimbra-07-pt,europe/lisbon,40.20564,-8.41955,0.0,501,74.33
1161,coimbra-07-pt,europe/lisbon,40.20564,-8.41955,1.0,173,25.67
1162,coity-wlsx3-gb,europe/london,51.522,-3.55531,0.0,364,59.97
1163,coity-wlsx3-gb,europe/london,51.522,-3.55531,1.0,243,40.03
1164,colatina-08-br,america/sao_paulo,-19.53944,-40.63056,0.0,9,60.0
1165,colatina-08-br,america/sao_paulo,-19.53944,-40.63056,1.0,6,40.0
1166,colchester-enge4-gb,europe/london,51.88921,0.90421,0.0,268,79.06
1167,colchester-enge4-gb,europe/london,51.88921,0.90421,1.0,71,20.94
1168,colima-08-mx,america/mexico_city,19.23333,-103.71667,0.0,18,100.0
1169,college station-tx041-us,america/chicago,30.62798,-96.33441,0.0,209,91.27
1170,college station-tx041-us,america/chicago,30.62798,-96.33441,1.0,20,8.73
1171,colombo-36-lk,asia/colombo,6.93194,79.84778,0.0,564,77.26
1172,colombo-36-lk,asia/colombo,6.93194,79.84778,1.0,166,22.74
1173,colon-04-pa,america/panama,9.35917,-79.90139,0.0,26,83.87
1174,colon-04-pa,america/panama,9.35917,-79.90139,1.0,5,16.13
1175,colorado springs-co041-us,america/denver,38.83388,-104.82136,0.0,128,60.95
1176,colorado springs-co041-us,america/denver,38.83388,-104.82136,1.0,82,39.05
1177,columbia-md027-us,america/new_york,39.24038,-76.83942,0.0,419,61.17
1178,columbia-md027-us,america/new_york,39.24038,-76.83942,1.0,266,38.83
1179,columbia-mo019-us,america/chicago,38.95171,-92.33407,0.0,90,86.54
1180,columbia-mo019-us,america/chicago,38.95171,-92.33407,1.0,14,13.46
1181,columbia-sc079-us,america/new_york,34.00071,-81.03481,0.0,355,69.34
1182,columbia-sc079-us,america/new_york,34.00071,-81.03481,1.0,157,30.66
1183,columbus-ga215-us,america/new_york,32.46098,-84.98771,0.0,106,77.94
1184,columbus-ga215-us,america/new_york,32.46098,-84.98771,1.0,30,22.06
1185,columbus-oh049-us,america/new_york,39.96118,-82.99879,0.0,1831,73.06
1186,columbus-oh049-us,america/new_york,39.96118,-82.99879,1.0,675,26.94
1187,comayagua-04-hn,america/tegucigalpa,14.45,-87.63333,0.0,6,100.0
1188,comilla-84-bd,asia/dhaka,23.46186,91.18504,0.0,110,29.41
1189,comilla-84-bd,asia/dhaka,23.46186,91.18504,1.0,264,70.59
1190,como-09co-it,europe/rome,45.80998,9.08744,0.0,104,65.41
1191,como-09co-it,europe/rome,45.80998,9.08744,1.0,55,34.59
1192,comodoro rivadavia-04-ar,america/argentina/catamarca,-45.86667,-67.5,0.0,427,63.45
1193,comodoro rivadavia-04-ar,america/argentina/catamarca,-45.86667,-67.5,1.0,246,36.55
1194,concepcion de la vega-30-do,america/santo_domingo,19.22207,-70.52956,0.0,7,87.5
1195,concepcion de la vega-30-do,america/santo_domingo,19.22207,-70.52956,1.0,1,12.5
1196,concord-ca013-us,america/los_angeles,37.97798,-122.03107,0.0,100,74.63
1197,concord-ca013-us,america/los_angeles,37.97798,-122.03107,1.0,34,25.37
1198,concord-nc025-us,america/new_york,35.40875,-80.57951,0.0,56,61.54
1199,concord-nc025-us,america/new_york,35.40875,-80.57951,1.0,35,38.46
1200,concordia-08-ar,america/argentina/cordoba,-31.39296,-58.02089,0.0,62,81.58
1201,concordia-08-ar,america/argentina/cordoba,-31.39296,-58.02089,1.0,14,18.42
1202,conselheiro lafaiete-15-br,america/sao_paulo,-20.66028,-43.78611,0.0,71,95.95
1203,conselheiro lafaiete-15-br,america/sao_paulo,-20.66028,-43.78611,1.0,3,4.05
1204,constanta-14-ro,europe/bucharest,44.18333,28.65,0.0,11,47.83
1205,constanta-14-ro,europe/bucharest,44.18333,28.65,1.0,12,52.17
1206,constantine-04-dz,africa/algiers,36.365,6.61472,0.0,52,69.33
1207,constantine-04-dz,africa/algiers,36.365,6.61472,1.0,23,30.67
1208,coon rapids-mn003-us,america/chicago,45.11997,-93.28773,0.0,141,81.98
1209,coon rapids-mn003-us,america/chicago,45.11997,-93.28773,1.0,31,18.02
1210,copenhagen-17101-dk,europe/copenhagen,55.67594,12.56553,0.0,1878,68.49
1211,copenhagen-17101-dk,europe/copenhagen,55.67594,12.56553,1.0,864,31.51
1212,copiapo-0531-cl,america/santiago,-27.36667,-70.33333,0.0,1,50.0
1213,copiapo-0531-cl,america/santiago,-27.36667,-70.33333,1.0,1,50.0
1214,coquimbo-0741-cl,america/santiago,-29.95333,-71.34361,0.0,54,80.6
1215,coquimbo-0741-cl,america/santiago,-29.95333,-71.34361,1.0,13,19.4
1216,cordoba-05-ar,america/argentina/cordoba,-31.4135,-64.18105,0.0,731,70.42
1217,cordoba-05-ar,america/argentina/cordoba,-31.4135,-64.18105,1.0,307,29.58
1218,cordoba-30-mx,america/mexico_city,18.88584,-96.93125,0.0,22,70.97
1219,cordoba-30-mx,america/mexico_city,18.88584,-96.93125,1.0,9,29.03
1220,cordoba-51co-es,europe/madrid,37.88333,-4.76667,0.0,69,75.0
1221,cordoba-51co-es,europe/madrid,37.88333,-4.76667,1.0,23,25.0
1222,cork-m04-ie,europe/dublin,51.89797,-8.47061,0.0,518,77.31
1223,cork-m04-ie,europe/dublin,51.89797,-8.47061,1.0,152,22.69
1224,corlu-59-tr,europe/istanbul,41.15917,27.8,0.0,91,88.35
1225,corlu-59-tr,europe/istanbul,41.15917,27.8,1.0,12,11.65
1226,coro-11-ve,america/caracas,11.4045,-69.67344,0.0,10,76.92
1227,coro-11-ve,america/caracas,11.4045,-69.67344,1.0,3,23.08
1228,corpus christi-tx355-us,america/chicago,27.80058,-97.39638,0.0,132,72.93
1229,corpus christi-tx355-us,america/chicago,27.80058,-97.39638,1.0,49,27.07
1230,corrientes-06-ar,america/argentina/cordoba,-27.4806,-58.8341,0.0,81,81.82
1231,corrientes-06-ar,america/argentina/cordoba,-27.4806,-58.8341,1.0,18,18.18
1232,corum-19-tr,europe/istanbul,40.54889,34.95333,0.0,13,76.47
1233,corum-19-tr,europe/istanbul,40.54889,34.95333,1.0,4,23.53
1234,corumba-11-br,america/campo_grande,-19.00917,-57.65333,0.0,6,100.0
1235,cosenza-03cs-it,europe/rome,39.30999,16.25019,0.0,79,96.34
1236,cosenza-03cs-it,europe/rome,39.30999,16.25019,1.0,3,3.66
1237,cotabato-14b8-ph,asia/manila,7.22361,124.24639,1.0,1,100.0
1238,cotonou-14-africa/porto,novo,6.36536,2.41833,0.0,36,78.26
1239,cotonou-14-africa/porto,novo,6.36536,2.41833,1.0,10,21.74
1240,cottbus-11-de,europe/berlin,51.75769,14.32888,0.0,9,64.29
1241,cottbus-11-de,europe/berlin,51.75769,14.32888,1.0,5,35.71
1242,coventry-engc7-gb,europe/london,52.40656,-1.51217,0.0,596,88.17
1243,coventry-engc7-gb,europe/london,52.40656,-1.51217,1.0,80,11.83
1244,cox's bazar-84-bd,asia/dhaka,21.45388,91.96765,0.0,15,83.33
1245,cox's bazar-84-bd,asia/dhaka,21.45388,91.96765,1.0,3,16.67
1246,craiova-17-ro,europe/bucharest,44.31667,23.8,0.0,4,80.0
1247,craiova-17-ro,europe/bucharest,44.31667,23.8,1.0,1,20.0
1248,crawley-engp6-gb,europe/london,51.11303,-0.18312,0.0,722,76.0
1249,crawley-engp6-gb,europe/london,51.11303,-0.18312,1.0,228,24.0
1250,cremona-09cr-it,europe/rome,45.13617,10.02797,0.0,22,57.89
1251,cremona-09cr-it,europe/rome,45.13617,10.02797,1.0,16,42.11
1252,creteil-a894-fr,europe/paris,48.78333,2.46667,0.0,1045,69.11
1253,creteil-a894-fr,europe/paris,48.78333,2.46667,1.0,467,30.89
1254,crewe-engz7-gb,europe/london,53.09787,-2.44161,0.0,171,81.43
1255,crewe-engz7-gb,europe/london,53.09787,-2.44161,1.0,39,18.57
1256,criciuma-26-br,america/sao_paulo,-28.6775,-49.36972,0.0,43,86.0
1257,criciuma-26-br,america/sao_paulo,-28.6775,-49.36972,1.0,7,14.0
1258,crystal lake-il111-us,america/chicago,42.24113,-88.3162,0.0,170,81.34
1259,crystal lake-il111-us,america/chicago,42.24113,-88.3162,1.0,39,18.66
1260,cucuta-21-co,america/bogota,7.89391,-72.50782,0.0,36,73.47
1261,cucuta-21-co,america/bogota,7.89391,-72.50782,1.0,13,26.53
1262,cuddalore-25-in,asia/kolkata,11.75,79.75,0.0,11,68.75
1263,cuddalore-25-in,asia/kolkata,11.75,79.75,1.0,5,31.25
1264,cuenca-02-ec,america/guayaquil,-2.88333,-78.98333,0.0,116,78.38
1265,cuenca-02-ec,america/guayaquil,-2.88333,-78.98333,1.0,32,21.62
1266,cuernavaca-17-mx,america/mexico_city,18.94201,-99.22646,0.0,63,85.14
1267,cuernavaca-17-mx,america/mexico_city,18.94201,-99.22646,1.0,11,14.86
1268,cuiaba-14-br,america/cuiaba,-15.59611,-56.09667,0.0,346,70.9
1269,cuiaba-14-br,america/cuiaba,-15.59611,-56.09667,1.0,142,29.1
1270,cukai-13-my,asia/kuala_lumpur,4.25,103.41667,0.0,56,65.88
1271,cukai-13-my,asia/kuala_lumpur,4.25,103.41667,1.0,29,34.12
1272,culiacan-25-mx,america/mazatlan,24.79944,-107.38972,0.0,43,69.35
1273,culiacan-25-mx,america/mazatlan,24.79944,-107.38972,1.0,19,30.65
1274,cumana-19-ve,america/caracas,10.46354,-64.1775,0.0,12,50.0
1275,cumana-19-ve,america/caracas,10.46354,-64.1775,1.0,12,50.0
1276,cumbernauld-sctv8-gb,europe/london,55.94685,-3.99051,0.0,616,79.18
1277,cumbernauld-sctv8-gb,europe/london,55.94685,-3.99051,1.0,162,20.82
1278,cuneo-12cn-it,europe/rome,44.39733,7.54453,0.0,60,75.95
1279,cuneo-12cn-it,europe/rome,44.39733,7.54453,1.0,19,24.05
1280,curico-1173-cl,america/santiago,-34.98333,-71.23333,0.0,11,78.57
1281,curico-1173-cl,america/santiago,-34.98333,-71.23333,1.0,3,21.43
1282,curitiba-18-br,america/sao_paulo,-25.42778,-49.27306,0.0,1216,77.75
1283,curitiba-18-br,america/sao_paulo,-25.42778,-49.27306,1.0,348,22.25
1284,curug-33-id,asia/jakarta,-6.26583,106.55639,0.0,1160,52.21
1285,curug-33-id,asia/jakarta,-6.26583,106.55639,1.0,1062,47.79
1286,cusco-08-pe,america/lima,-13.51833,-71.97806,0.0,28,54.9
1287,cusco-08-pe,america/lima,-13.51833,-71.97806,1.0,23,45.1
1288,czestochowa-83-pl,europe/warsaw,50.79646,19.12409,0.0,96,74.42
1289,czestochowa-83-pl,europe/warsaw,50.79646,19.12409,1.0,33,25.58
1290,da lat-23-vn,asia/ho_chi_minh,11.94646,108.44193,0.0,9,29.03
1291,da lat-23-vn,asia/ho_chi_minh,11.94646,108.44193,1.0,22,70.97
1292,dabwali-10-in,asia/kolkata,29.94878,74.73707,1.0,1,100.0
1293,dadu-05-pk,asia/karachi,26.73286,67.77631,0.0,2,66.67
1294,dadu-05-pk,asia/karachi,26.73286,67.77631,1.0,1,33.33
1295,daegu-15-kr,asia/seoul,35.87028,128.59111,0.0,59,45.74
1296,daegu-15-kr,asia/seoul,35.87028,128.59111,1.0,70,54.26
1297,daejeon-19-kr,asia/seoul,36.32139,127.41972,0.0,71,55.91
1298,daejeon-19-kr,asia/seoul,36.32139,127.41972,1.0,56,44.09
1299,daet-0515-ph,asia/manila,14.1122,122.9553,1.0,1,100.0
1300,dakar-01-sn,africa/dakar,14.6937,-17.44406,0.0,1352,76.43
1301,dakar-01-sn,africa/dakar,14.6937,-17.44406,1.0,417,23.57
1302,dale city-va153-us,america/new_york,38.63706,-77.31109,0.0,133,81.1
1303,dale city-va153-us,america/new_york,38.63706,-77.31109,1.0,31,18.9
1304,dalian-19-cn,asia/shanghai,38.91222,121.60222,0.0,1,33.33
1305,dalian-19-cn,asia/shanghai,38.91222,121.60222,1.0,2,66.67
1306,dallas-tx113-us,america/chicago,32.78306,-96.80667,0.0,3015,77.73
1307,dallas-tx113-us,america/chicago,32.78306,-96.80667,1.0,864,22.27
1308,daltenganj-38-in,asia/kolkata,24.04306,84.06866,0.0,1,14.29
1309,daltenganj-38-in,asia/kolkata,24.04306,84.06866,1.0,6,85.71
1310,daly city-ca081-us,america/los_angeles,37.70577,-122.46192,0.0,260,87.84
1311,daly city-ca081-us,america/los_angeles,37.70577,-122.46192,1.0,36,12.16
1312,damascus-13-sy,asia/damascus,33.5102,36.29128,0.0,42,56.0
1313,damascus-13-sy,asia/damascus,33.5102,36.29128,1.0,33,44.0
1314,damaturu-44-ng,africa/lagos,11.747,11.9608,1.0,1,100.0
1315,damietta-20-eg,africa/cairo,31.41648,31.81332,0.0,205,76.21
1316,damietta-20-eg,africa/cairo,31.41648,31.81332,1.0,64,23.79
1317,dar es salaam-23-tz,africa/dar_es_salaam,-6.82349,39.26951,0.0,1424,82.69
1318,dar es salaam-23-tz,africa/dar_es_salaam,-6.82349,39.26951,1.0,298,17.31
1319,dar kulayb-19-bh,asia/bahrain,26.06861,50.50389,0.0,885,73.93
1320,dar kulayb-19-bh,asia/bahrain,26.06861,50.50389,1.0,312,26.07
1321,darbhanga-34-in,asia/kolkata,26.15216,85.89707,0.0,7,43.75
1322,darbhanga-34-in,asia/kolkata,26.15216,85.89707,1.0,9,56.25
1323,darwin-03-au,australia/darwin,-12.46113,130.84185,0.0,22,68.75
1324,darwin-03-au,australia/darwin,-12.46113,130.84185,1.0,10,31.25
1325,dasmarinas-4020-ph,asia/manila,14.32944,120.93667,0.0,240,50.1
1326,dasmarinas-4020-ph,asia/manila,14.32944,120.93667,1.0,239,49.9
1327,dasoguz-03-tm,asia/ashgabat,41.83625,59.96662,0.0,56,26.67
1328,dasoguz-03-tm,asia/ashgabat,41.83625,59.96662,1.0,154,73.33
1329,daugavpils-06-lv,europe/riga,55.88333,26.53333,0.0,5,55.56
1330,daugavpils-06-lv,europe/riga,55.88333,26.53333,1.0,4,44.44
1331,davao-11c3-ph,asia/manila,7.07306,125.61278,0.0,61,50.0
1332,davao-11c3-ph,asia/manila,7.07306,125.61278,1.0,61,50.0
1333,davenport-ia163-us,america/chicago,41.52364,-90.57764,0.0,23,82.14
1334,davenport-ia163-us,america/chicago,41.52364,-90.57764,1.0,5,17.86
1335,david-02-pa,america/panama,8.42729,-82.43085,0.0,47,88.68
1336,david-02-pa,america/panama,8.42729,-82.43085,1.0,6,11.32
1337,davis-ca113-us,america/los_angeles,38.54491,-121.74052,0.0,36,75.0
1338,davis-ca113-us,america/los_angeles,38.54491,-121.74052,1.0,12,25.0
1339,dayan-29-cn,asia/chongqing,26.86879,100.22072,0.0,2,66.67
1340,dayan-29-cn,asia/chongqing,26.86879,100.22072,1.0,1,33.33
1341,dayton-oh113-us,america/new_york,39.75895,-84.19161,0.0,38,71.7
1342,dayton-oh113-us,america/new_york,39.75895,-84.19161,1.0,15,28.3
1343,debrecen-10-hu,europe/budapest,47.53333,21.63333,0.0,8,61.54
1344,debrecen-10-hu,europe/budapest,47.53333,21.63333,1.0,5,38.46
1345,dehra dun-39-in,asia/kolkata,30.31667,78.03333,0.0,182,49.73
1346,dehra dun-39-in,asia/kolkata,30.31667,78.03333,1.0,184,50.27
1347,dehri-34-in,asia/kolkata,24.90504,84.18289,0.0,4,66.67
1348,dehri-34-in,asia/kolkata,24.90504,84.18289,1.0,2,33.33
1349,delhi-07-in,asia/kolkata,28.65381,77.22897,0.0,4376,51.53
1350,delhi-07-in,asia/kolkata,28.65381,77.22897,1.0,4116,48.47
1351,delitzsch-13-de,europe/berlin,51.52546,12.34284,0.0,62,75.61
1352,delitzsch-13-de,europe/berlin,51.52546,12.34284,1.0,20,24.39
1353,delmenhorst-0600-de,europe/berlin,53.0511,8.63091,0.0,106,62.72
1354,delmenhorst-0600-de,europe/berlin,53.0511,8.63091,1.0,63,37.28
1355,deltona-fl127-us,america/new_york,28.90054,-81.26367,0.0,102,73.38
1356,deltona-fl127-us,america/new_york,28.90054,-81.26367,1.0,37,26.62
1357,denia-60a-es,europe/madrid,38.84078,0.10574,0.0,63,77.78
1358,denia-60a-es,europe/madrid,38.84078,0.10574,1.0,18,22.22
1359,denizli-20-tr,europe/istanbul,37.77417,29.0875,0.0,187,89.9
1360,denizli-20-tr,europe/istanbul,37.77417,29.0875,1.0,21,10.1
1361,denpasar-02-id,asia/makassar,-8.65,115.21667,0.0,1742,52.49
1362,denpasar-02-id,asia/makassar,-8.65,115.21667,1.0,1577,47.51
1363,denton-tx121-us,america/chicago,33.21484,-97.13307,0.0,228,80.0
1364,denton-tx121-us,america/chicago,33.21484,-97.13307,1.0,57,20.0
1365,denver-co031-us,america/denver,39.73915,-104.9847,0.0,667,74.69
1366,denver-co031-us,america/denver,39.73915,-104.9847,1.0,226,25.31
1367,dera ghazi khan-04-pk,asia/karachi,30.05614,70.63477,0.0,24,47.06
1368,dera ghazi khan-04-pk,asia/karachi,30.05614,70.63477,1.0,27,52.94
1369,dera ismail khan-03-pk,asia/karachi,31.83269,70.9024,0.0,1,100.0
1370,derbent-17-ru,europe/moscow,42.0678,48.28987,1.0,1,100.0
1371,derby-engd2-gb,europe/london,52.92277,-1.47663,0.0,819,62.76
1372,derby-engd2-gb,europe/london,52.92277,-1.47663,1.0,486,37.24
1373,derry village-nh015-us,america/new_york,42.89175,-71.31201,0.0,37,68.52
1374,derry village-nh015-us,america/new_york,42.89175,-71.31201,1.0,17,31.48
1375,des moines-ia153-us,america/chicago,41.60054,-93.60911,0.0,156,89.66
1376,des moines-ia153-us,america/chicago,41.60054,-93.60911,1.0,18,10.34
1377,dese-46-et,africa/addis_ababa,11.13333,39.63333,0.0,1,100.0
1378,detroit-mi163-us,america/detroit,42.33143,-83.04575,0.0,1026,72.36
1379,detroit-mi163-us,america/detroit,42.33143,-83.04575,1.0,392,27.64
1380,dewsbury-eng00-gb,europe/london,53.69076,-1.62907,0.0,120,88.24
1381,dewsbury-eng00-gb,europe/london,53.69076,-1.62907,1.0,16,11.76
1382,dhaka-8113-bd,asia/dhaka,23.7104,90.40744,0.0,3410,63.21
1383,dhaka-8113-bd,asia/dhaka,23.7104,90.40744,1.0,1985,36.79
1384,dhangarhi-00-np,asia/kathmandu,28.70792,80.59611,0.0,1,50.0
1385,dhangarhi-00-np,asia/kathmandu,28.70792,80.59611,1.0,1,50.0
1386,dharan bazar-00-np,asia/kathmandu,26.81248,87.28355,0.0,96,70.07
1387,dharan bazar-00-np,asia/kathmandu,26.81248,87.28355,1.0,41,29.93
1388,dharapuram-25-in,asia/kolkata,10.73828,77.53223,0.0,1,16.67
1389,dharapuram-25-in,asia/kolkata,10.73828,77.53223,1.0,5,83.33
1390,dharmapuri-25-in,asia/kolkata,12.1277,78.15794,0.0,1,16.67
1391,dharmapuri-25-in,asia/kolkata,12.1277,78.15794,1.0,5,83.33
1392,dhaulpur-24-in,asia/kolkata,26.69286,77.87968,1.0,2,100.0
1393,dibrugarh-03-in,asia/kolkata,27.47989,94.90837,0.0,12,48.0
1394,dibrugarh-03-in,asia/kolkata,27.47989,94.90837,1.0,13,52.0
1395,digos-1125-ph,asia/manila,6.74972,125.35722,0.0,1,25.0
1396,digos-1125-ph,asia/manila,6.74972,125.35722,1.0,3,75.0
1397,dijon-a121-fr,europe/paris,47.31667,5.01667,0.0,241,72.37
1398,dijon-a121-fr,europe/paris,47.31667,5.01667,1.0,92,27.63
1399,dili-di-tl,asia/dili,-8.55861,125.57361,0.0,1,25.0
1400,dili-di-tl,asia/dili,-8.55861,125.57361,1.0,3,75.0
1401,dimapur-03-in,asia/kolkata,25.91174,93.7217,0.0,2,100.0
1402,dinajpur-87-bd,asia/dhaka,25.62715,88.63864,0.0,5,100.0
1403,dindigul-25-in,asia/kolkata,10.36896,77.98036,0.0,4,57.14
1404,dindigul-25-in,asia/kolkata,10.36896,77.98036,1.0,3,42.86
1405,dipalpur-04-pk,asia/karachi,30.67091,73.65292,0.0,2,100.0
1406,dipolog-0965-ph,asia/manila,8.5883,123.3409,1.0,4,100.0
1407,divinopolis-15-br,america/sao_paulo,-20.13889,-44.88389,0.0,40,90.91
1408,divinopolis-15-br,america/sao_paulo,-20.13889,-44.88389,1.0,4,9.09
1409,diyarbakir-21-tr,europe/istanbul,37.91583,40.21889,0.0,246,65.78
1410,diyarbakir-21-tr,europe/istanbul,37.91583,40.21889,1.0,128,34.22
1411,djibouti-07-dj,africa/djibouti,11.58901,43.14503,0.0,12,44.44
1412,djibouti-07-dj,africa/djibouti,11.58901,43.14503,1.0,15,55.56
1413,djounie-05-lb,asia/beirut,33.98083,35.61778,0.0,216,77.42
1414,djounie-05-lb,asia/beirut,33.98083,35.61778,1.0,63,22.58
1415,dnipropetrovsk-04-ua,europe/kiev,48.45,34.98333,0.0,39,70.91
1416,dnipropetrovsk-04-ua,europe/kiev,48.45,34.98333,1.0,16,29.09
1417,dodoma-03-tz,africa/dar_es_salaam,-6.17221,35.73947,0.0,10,71.43
1418,dodoma-03-tz,africa/dar_es_salaam,-6.17221,35.73947,1.0,4,28.57
1419,doha-01-qa,asia/qatar,25.27932,51.52245,0.0,36462,58.35
1420,doha-01-qa,asia/qatar,25.27932,51.52245,1.0,26028,41.65
1421,donets'k-05-ua,europe/kiev,48.023,37.80224,0.0,4,100.0
1422,dongguan-30-cn,asia/shanghai,23.04889,113.74472,0.0,36,69.23
1423,dongguan-30-cn,asia/shanghai,23.04889,113.74472,1.0,16,30.77
1424,donskoy-76-ru,europe/moscow,53.97106,38.33627,0.0,1,50.0
1425,donskoy-76-ru,europe/moscow,53.97106,38.33627,1.0,1,50.0
1426,douala-05-cm,africa/douala,4.04827,9.70428,0.0,1596,70.9
1427,douala-05-cm,africa/douala,4.04827,9.70428,1.0,655,29.1
1428,douane-19-tn,africa/tunis,36.44766,10.7557,0.0,3,60.0
1429,douane-19-tn,africa/tunis,36.44766,10.7557,1.0,2,40.0
1430,douliu-04yun-tw,asia/taipei,23.70944,120.54333,0.0,7,77.78
1431,douliu-04yun-tw,asia/taipei,23.70944,120.54333,1.0,2,22.22
1432,dourados-11-br,america/campo_grande,-22.22111,-54.80556,0.0,25,86.21
1433,dourados-11-br,america/campo_grande,-22.22111,-54.80556,1.0,4,13.79
1434,drammen-04-no,europe/oslo,59.74389,10.20449,0.0,26,66.67
1435,drammen-04-no,europe/oslo,59.74389,10.20449,1.0,13,33.33
1436,dresden-13146-de,europe/berlin,51.05089,13.73832,0.0,92,79.31
1437,dresden-13146-de,europe/berlin,51.05089,13.73832,1.0,24,20.69
1438,drobeta turnu severin-26-ro,europe/bucharest,44.63194,22.65611,0.0,2,100.0
1439,drogobych-15-ua,europe/kiev,49.34991,23.50561,0.0,1,50.0
1440,drogobych-15-ua,europe/kiev,49.34991,23.50561,1.0,1,50.0
1441,dubai-03-ae,asia/dubai,25.25817,55.30472,0.0,3866,68.08
1442,dubai-03-ae,asia/dubai,25.25817,55.30472,1.0,1813,31.92
1443,dublin-l33-ie,europe/dublin,53.33306,-6.24889,0.0,3010,81.93
1444,dublin-l33-ie,europe/dublin,53.33306,-6.24889,1.0,664,18.07
1445,dudley-engd7-gb,europe/london,52.5,-2.08333,0.0,338,89.18
1446,dudley-engd7-gb,europe/london,52.5,-2.08333,1.0,41,10.82
1447,dukuhturi-00-id,asia/jakarta,-6.9,109.08333,0.0,34,45.95
1448,dukuhturi-00-id,asia/jakarta,-6.9,109.08333,1.0,40,54.05
1449,dumaguete-0746-ph,asia/manila,9.307,123.3074,0.0,13,68.42
1450,dumaguete-0746-ph,asia/manila,9.307,123.3074,1.0,6,31.58
1451,dumai-37-id,asia/jakarta,1.68333,101.45,0.0,18,56.25
1452,dumai-37-id,asia/jakarta,1.68333,101.45,1.0,14,43.75
1453,dun laoghaire-l34-ie,europe/dublin,53.29395,-6.13586,0.0,252,87.5
1454,dun laoghaire-l34-ie,europe/dublin,53.29395,-6.13586,1.0,36,12.5
1455,dundalk-md005-us,america/new_york,39.25066,-76.52052,0.0,14,60.87
1456,dundalk-md005-us,america/new_york,39.25066,-76.52052,1.0,9,39.13
1457,dundee-sctu3-gb,europe/london,56.5,-2.96667,0.0,387,77.71
1458,dundee-sctu3-gb,europe/london,56.5,-2.96667,1.0,111,22.29
1459,dunedin-f7071-nz,pacific/auckland,-45.87416,170.50361,0.0,40,72.73
1460,dunedin-f7071-nz,pacific/auckland,-45.87416,170.50361,1.0,15,27.27
1461,dunkerque-b459-fr,europe/paris,51.05,2.36667,0.0,112,68.29
1462,dunkerque-b459-fr,europe/paris,51.05,2.36667,1.0,52,31.71
1463,dunstable-engz6-gb,europe/london,51.886,-0.52099,0.0,61,67.03
1464,dunstable-engz6-gb,europe/london,51.886,-0.52099,1.0,30,32.97
1465,dunwoody-ga089-us,america/new_york,33.94621,-84.33465,0.0,468,73.24
1466,dunwoody-ga089-us,america/new_york,33.94621,-84.33465,1.0,171,26.76
1467,durango-10-mx,america/monterrey,24.03333,-104.66667,0.0,19,65.52
1468,durango-10-mx,america/monterrey,24.03333,-104.66667,1.0,10,34.48
1469,durban-02eth-za,africa/johannesburg,-29.8579,31.0292,0.0,735,55.77
1470,durban-02eth-za,africa/johannesburg,-29.8579,31.0292,1.0,583,44.23
1471,durgapur-28-in,asia/kolkata,23.48333,87.31667,0.0,13,72.22
1472,durgapur-28-in,asia/kolkata,23.48333,87.31667,1.0,5,27.78
1473,durham-engd8-gb,europe/london,54.77676,-1.57566,0.0,679,60.62
1474,durham-engd8-gb,europe/london,54.77676,-1.57566,1.0,441,39.38
1475,durham-nc063-us,america/new_york,35.99403,-78.89862,0.0,421,71.11
1476,durham-nc063-us,america/new_york,35.99403,-78.89862,1.0,171,28.89
1477,dushanbe-7280679-tj,asia/dushanbe,38.53575,68.77905,0.0,15,65.22
1478,dushanbe-7280679-tj,asia/dushanbe,38.53575,68.77905,1.0,8,34.78
1479,dusseldorf-07051-de,europe/berlin,51.22172,6.77616,0.0,1371,58.44
1480,dusseldorf-07051-de,europe/berlin,51.22172,6.77616,1.0,975,41.56
1481,eagan-mn037-us,america/chicago,44.80413,-93.16689,0.0,90,77.59
1482,eagan-mn037-us,america/chicago,44.80413,-93.16689,1.0,26,22.41
1483,east hampton-va650-us,america/new_york,37.03737,-76.33161,0.0,23,76.67
1484,east hampton-va650-us,america/new_york,37.03737,-76.33161,1.0,7,23.33
1485,east jerusalem-we-ps,asia/hebron,31.78336,35.23388,0.0,3,33.33
1486,east jerusalem-we-ps,asia/hebron,31.78336,35.23388,1.0,6,66.67
1487,east kilbride-sctw5-gb,europe/london,55.76667,-4.16667,0.0,582,70.46
1488,east kilbride-sctw5-gb,europe/london,55.76667,-4.16667,1.0,244,29.54
1489,east london-05buf-za,africa/johannesburg,-33.01529,27.91162,0.0,97,74.05
1490,east london-05buf-za,africa/johannesburg,-33.01529,27.91162,1.0,34,25.95
1491,east pensacola heights-fl033-us,america/chicago,30.42881,-87.17997,0.0,128,69.95
1492,east pensacola heights-fl033-us,america/chicago,30.42881,-87.17997,1.0,55,30.05
1493,eberswalde-11-de,europe/berlin,52.83492,13.81951,0.0,13,65.0
1494,eberswalde-11-de,europe/berlin,52.83492,13.81951,1.0,7,35.0
1495,ecatepec-15-mx,america/mexico_city,19.60111,-99.0525,0.0,224,81.75
1496,ecatepec-15-mx,america/mexico_city,19.60111,-99.0525,1.0,50,18.25
1497,ech chettia-41-dz,africa/algiers,36.19591,1.25538,1.0,3,100.0
1498,edinburgh-sctu8-gb,europe/london,55.95206,-3.19648,0.0,1453,78.63
1499,edinburgh-sctu8-gb,europe/london,55.95206,-3.19648,1.0,395,21.37
1500,edirne-22-tr,europe/istanbul,41.67719,26.55597,0.0,71,74.74
1501,edirne-22-tr,europe/istanbul,41.67719,26.55597,1.0,24,25.26
1502,edison-nj023-us,america/new_york,40.51872,-74.4121,0.0,404,49.09
1503,edison-nj023-us,america/new_york,40.51872,-74.4121,1.0,419,50.91
1504,edmonton-01-ca,america/edmonton,53.55014,-113.46871,0.0,1171,68.44
1505,edmonton-01-ca,america/edmonton,53.55014,-113.46871,1.0,540,31.56
1506,edremit-10-tr,europe/istanbul,39.59611,27.02444,0.0,162,71.37
1507,edremit-10-tr,europe/istanbul,39.59611,27.02444,1.0,65,28.63
1508,eindhoven-06-nl,europe/amsterdam,51.44083,5.47778,0.0,296,73.09
1509,eindhoven-06-nl,europe/amsterdam,51.44083,5.47778,1.0,109,26.91
1510,el achir-39-dz,africa/algiers,36.06386,4.62744,0.0,7,70.0
1511,el achir-39-dz,africa/algiers,36.06386,4.62744,1.0,3,30.0
1512,el centro-ca025-us,america/los_angeles,32.792,-115.56305,0.0,7,70.0
